<?xml version="1.0" encoding="UTF-8"?><document>

<text id="1792_b"><p><s id="s1">Fortnight's Ramble To The Lakes In <enamex  sw="w47" name="Large admin unit">Westmoreland</enamex>, <enamex  sw="w61" name="Large admin unit">Lancashire</enamex>, And <enamex  sw="w77" name="Large admin unit">Cumberland</enamex>.</s> </p>
<p> <s id="s2">By A Rambler.</s> </p>
<p><s id="s3">Heavens! what a goodly prospect spreads around Of Hills, and Dales, and Woods, and Lawns------ Happy Britainia! where the Queen Of Arts Inspiring vigour, Liberty abroad Walks, unconfined, even to thy farthest cots, And scatters plenty with unspairing hand,</s> </p>
<p> <s id="s4">Thomson.</s></p>
<p><s id="s5"><enamex sw="w377" long="-0.1193526387214661" lat="51.47267150878906" type="ppla" gazref="unlock:14132302" name="London" conf="2.74208267">London</enamex>: Printed For Hookham And Carpenter, New And Old Bond Street.</s> <s id="s6">1792.</s>
</p>
<p> <s id="s7">Fell, a barren mountain.</s>	 <s id="s8">Crag, a rough-topped hill.</s>	 <s id="s9"><enamex sw="w509" long="-2.683045994131495" lat="54.01268803850036" type="water" gazref="unlock:8778230" name="Castle Syke" conf="2.4">Syke</enamex>, a rivulet, or a rent in mountain.</s>	 <s id="s10">Gill, a small waterfall.</s>	 <s id="s11">Tarn, a small lake.</s>		 <s id="s12">An Explanation of some of the provincial Words.</s>	 <s id="s13">an,-- have.</s>	 <s id="s14">aw,-- all.</s>	 <s id="s15">bu,-- but.</s>	 <s id="s16">con,-- can.</s>	 <s id="s17">cum,-- come.</s>	 <s id="s18">deed,-- died.</s>	 <s id="s19">dun-naw,-- do not.</s>	 <s id="s20">faither,-- father.</s>	 <s id="s21">feact,-- fact.</s>	 <s id="s22">fealt no pean,-- felt no pain.</s>	 <s id="s23">fellar,-- fellow gien um seck,-- given them such.</s>	 <s id="s24">lard,-- lord.</s>	 <s id="s25">neames,-- names.</s>	 <s id="s26">tha mun,-- thou must.</s>	 <s id="s27">the cradle,-- the cradle.</s>	 <s id="s28">thinken umselves,-- think themselves.</s>	 <s id="s29">t' kno,-- to know.</s>	 <s id="s30">um,-- them.</s>	 <s id="s31">wad,-- would.</s>	 <s id="s32">yon mon,-- yonder man.</s>	</p>
<p><s id="s33">N.B.</s> <s id="s34">As the Author has no Vocabulary to go by, he judges from the ear.</s></p>
<p><s id="s35">Preface.</s>
</p>
<p><s id="s36">To guard against the severity of criticism, which I must expect, or the too partial praise of some of my friends that I might not deserve,( either of which would be unwelcome) I conceal myself under the signature of A Rambler.</s></p>
<p><s id="s37">This excursion was at the request of a friend, and I was so pleased with every thing I saw, I hope there are some few who will not be displeased with my manner of telling it; whatever I have written came warm from the imagination, with the views full before it.</s> <s id="s38">I have always been an admirer of the works of Nature, and I never saw them in such liberal features before: I have no fine houses, no fine paintings, no compliments to great people, to swell out my book with-- my portraits are cottagers, my pictures what Nature has lavished around them-- when I do praise a rich man, it shall never be on account of his wealth, but for those unremitting acts of philanthropy, those only deserving of esteem, that shower down in charity wherever it is wanted.</s></p>
<p><s id="s39">The inhabitants are as peaceful as their vallies, and seem to have no inclination to leave them: they even talk of their forefathers, and carry an oral account for several generations of any one who has been out of the common way.</s> <s id="s40">One man told us," My faither, gran-faither, an grait granfaither, fearmed yon lake, an I was naw leave this pleace for aw the world."-- This valley had no more than fourteen houses, and is so entombed in mountains, that only one chaise has been known to visit it.</s>  <s id="s41">-- Happy man! well dost thou prove that Nature impresses the strongest attachments where she is undisturbed, and that every thing around them grows in their minds, and becomes a necessary part of them.</s>  <s id="s42">-- Prithee, Mortal! dost not thou think this simple villager has given( in a few words) as practical proof of contentment as volumes could contain?</s></p>
<p><s id="s43">I feel that I have been too diffuse in description-- I much wished to correct it-- and have taken out more than I have added; but not finding myself to the task of self-criticism, most of my alterations became so formal, I was obliged to desist-- the weeds and flowers( if there are any) grow together, and they are before you in their first, unfinished dress.</s></p>
<p><s id="s44">Those who make the tour of the Lakes, and will examine any of the views I attempt to describe, if they see them from the points I did, and in the last week in July and the first week in August, making allowances for the fancies of Nature, or the pruning hand of man, may, perhaps, give me the credit of delineating faithfully; and they will be well repaid against any of my omissions, by finding out new beauties of their own: and I trust those who do not visit them, by taking the trouble of perusing this Ramble, will have some enlivening scenes and useful characters presented to them.</s></p>
<p><s id="s45">We were exactly one fortnight with constant fine weather, during which we walked upwards of two hundred and forty miles, besides boat and chaise conveyance; and what with admiring the wonders around us, writing them down, or storing them in my memory for an early morning's pen, I can truly say I enjoyed a noble hurry of imagination, and that I had not time to be idle.</s></p>
<p><s id="s46">The friend I accompanied was my guide; he had been at the Lakes before: his taste led him thither again, and I have to express myself singularly obliged for many features he pointed out which my mind had not taken in.</s> <s id="s47">He had" Mr West's Guide to the Lakes," but did not make use of it.</s> <s id="s48">Mr. West, I understand, was a scholar of warm fancy; he had studied their beauties minutely, and, from living near them, took time to be correct.</s> <s id="s49">I believe that gentleman has brought much company, and will always be recollected( for he is now no more!) as their best patron: I would with pleasure have read his book, if I had not been apprehensive it might have suppressed this, which does not merit the name of a Guide, and is only offered as a Journeying Companion.</s> <s id="s50">It was customary, I am told, to dash by them with an exclamation or two of" Oh! how fine"&amp; c.; or, as a gentleman said to Robin Partridge the day after we were upon <enamex sw="w5334" long="-2.907933804199639" lat="54.37599546506077" type="ppl" gazref="unlock:10204" name="Windermere" conf="2.6">Windermere</enamex>," Good God! how delightful!-- how charming!-- I could live here for ever!-- Row on, row on, row on;" and after passing one hour of exclamations upon the Lake, and half an hour at <enamex sw="w5533" long="-2.96358681023542" lat="54.4319364520582" type="ppl" gazref="unlock:11061737" name="Ambleside" conf="2.6">Ambleside</enamex>, he ordered his horses into his phaeton, and flew off to take( I doubt not) an equally flying view of <enamex sw="w5645" long="-3.1588" lat="54.6018" type="other" gazref="unlock:5828527" name="Derwentwater Hotel" conf="2">Derwentwater</enamex>.</s> <s id="s51">Robin Partridge, when he told us of it, asked us if we thought" the gentleman was as composed as he sud be?"</s></p>
<p><s id="s52">It is now so meritoriously the fashion to make this tour, I dare almost say it will be thought want of taste not to be able to speak about it; for it only wants to be made, to have the preference of every summer excursion in the kingdom.</s> <s id="s53">Had these beauties been formed in a foreign land, they would have been long ago more known; but since a once-boasted, though now unfortunate, part of the Continent is become a scene of horror and devastation, they may be thought worthy attention.</s>  <s id="s54">-- I was telling a Grand Tourist where I had been, and he dashed off to <enamex  sw="w6327" name="Large admin unit">Switzerland</enamex>.</s> <s id="s55">We have no reason to depreciate other countries in commending our own; but Nature has sported in such a variety At Home, no views can exceed them in that delightful miniature which the eye takes in, without being either glutted by expanse, or Disgusted by deformity.</s></p>
<p><s id="s56">The shortness of our Ramble did not allow us to visit every Lake; and I regret what I have said of <enamex sw="w6706" long="-3.186667117994916" lat="54.68162943544549" type="ppl" gazref="unlock:11071444" name="Bassenthwaite" conf="2.6">Bassenthwaite</enamex>, <enamex sw="w6721" long="-2.022942457371631" lat="54.10320938440516" type="ppl" gazref="unlock:11115207" name="Conistone" conf="1.6">Conistone</enamex>, and <enamex sw="w6736" long="-2.8025" lat="54.5218" type="manual update" gazref="Geoname_ID_2647299" name="Haweswater" conf="99992">Hawswater</enamex>, is so unequal to what they merit-- we only saw them in perspective.</s>  <s id="s57">-- <enamex sw="w6823" long="-2.96358681023542" lat="54.4319364520582" type="ppl" gazref="unlock:11061737" name="Ambleside" conf="2.6">Ambleside</enamex> or <enamex sw="w6836" long="-3.000560623790019" lat="54.24386305141168" type="ppl" gazref="unlock:16529" name="Low Wood" conf="2.6">Low Wood</enamex> are the best situated for head quarters the first week, and <enamex sw="w6905" long="-3.125370693283439" lat="54.60160037173823" type="ppl" gazref="unlock:10824" name="Keswick" conf="2.6">Keswick</enamex> for the remainder of the tour: <enamex sw="w6944" long="-3.125370693283439" lat="54.60160037173823" type="ppl" gazref="unlock:10824" name="Keswick" conf="2.6">Keswick</enamex> is the little <enamex sw="w6966" long="-0.1193526387214661" lat="51.47267150878906" type="ppla" gazref="unlock:14132302" name="London" conf="2.74208267">London</enamex> of the towns about the Lakes, and we observed, as in all large places, the experience is greater.</s></p>
<p><s id="s58">Reader! when thou considerest the labourious mountains we traversed, and that the whole of this book, except the preface and chaptering out, took up but one fortnight, thou mayst make some allowance for the many defects; for, like the author, it is too incorrect to be formal-- but it is for the Public, and I have no right to judge it either or myself.</s></p>
<p><s id="s59">A Rambler.</s></p>
<p><s id="s60"><enamex sw="w7439" long="-0.1193526387214661" lat="51.47267150878906" type="ppla" gazref="unlock:14132302" name="London" conf="2.74208267">London</enamex></s></p>
<p><s id="s61">August 20th, 1792.</s></p>
<p><s id="s62">Contents.</s>
</p>
<p> <s id="s63">Chap.</s> <s id="s64">1.</s>	 <s id="s65">Page A slight Touch of a <enamex sw="w7513" long="1.384932645085696" lat="51.38410631863947" type="ppl" gazref="unlock:11213629" name="Margate" conf="1.961658872">Margate</enamex> Hoy, not to be read before Breakfast, except you have been in a <enamex sw="w7585" long="-112.1648756" lat="33.6000401" type="other" gazref="unlock:8028269" name="Cactus Gale V" conf="0.9046659376">Gale</enamex> of Wind at Sea 1 Chap Ii.</s>	 <s id="s66">A Mail Coach---- 7 Chap.</s> <s id="s67">Iii.</s>	 <s id="s68">Cross the Country to <enamex sw="w7679" long="-2.745809060481465" lat="54.32561646560368" type="ppl" gazref="unlock:11185036" name="Kendal" conf="3.093870132">Kendal</enamex> - Fatigue - Covered by Sancho Panca's incomparable Cloak - The River Ken - Salmon leaping - <enamex sw="w7778" long="-2.760025660993138" lat="54.26260808967285" type="fac" gazref="unlock:11194369" name="Levens Park" conf="2.2">Levens Park</enamex> - The Liquor called <enamex sw="w7810" long="-5.0000000" lat="32.0000000" type="country" gazref="geonames:2542007" name="Morocco" conf="2.169187535">Morocco</enamex> - <enamex sw="w7820" long="-2.7759" lat="54.2433" type="manual update" gazref="unlock:13903834" name="Heversham" conf="99992">Haversham Village</enamex> - Sexton, a Man of Feeling-- 12 Chap Iv.</s>	 <s id="s69">A Village Dancing Master - An aged Matron - Rustic Politeness on her Entrance.</s> <s id="s70">- A Hornpipe - The <enamex sw="w7983" long="-88.1597984" lat="42.0772486" type="other" gazref="unlock:7643220" name="Mill Rose Farm RLA Airport" conf="0.7309128011">Rose</enamex> Dance - Farmer's Servant - A Barn Dancing School - The Church - Dinner - Return to <enamex sw="w8071" long="-2.788353495453104" lat="54.27053820434658" type="ppl" gazref="unlock:28630" name="Levens" conf="2.6">Levens</enamex> - The Gardens - Antiquated Housekeeper - Kitchen <enamex sw="w8127" long="-2.760687641054082" lat="54.29855809016919" type="other" gazref="unlock:11158229" name="Grate" conf="2">Grate</enamex>-- 19</s>	</p>
<p> <s id="s71">Chap.</s> <s id="s72">V. Petrifactions - <enamex sw="w8170" long="-2.745809060481465" lat="54.32561646560368" type="ppl" gazref="unlock:11185036" name="Kendal" conf="3.093870132">Kendal</enamex> Church - A Barber, a Man of Family-- 27 Chap.</s> <s id="s73">Vi.</s>	 <s id="s74">Obelisk - Children in <enamex sw="w8255" long="-2.745809060481465" lat="54.32561646560368" type="ppl" gazref="unlock:11185036" name="Kendal" conf="3.093870132">Kendal</enamex> sickly - Industry - <enamex sw="w8282" long="-72.882879" lat="41.6434317" type="other" gazref="unlock:7580365" name="New Haven and Northampton Canal" conf="0.7384167448">New Canal</enamex> - Tenter Grounds - A Man of Ingenuity-- 31 Chap Vii.</s>	 <s id="s75"><enamex sw="w8351" long="-2.525168987284864" lat="53.90431161336075" type="rgn" gazref="unlock:11182477" name="Ing Wood" conf="1.4">Ing</enamex>'s Chapel - Industry rewarded - Benevolence - A first Sight of the Lakes - Boats upon <enamex sw="w8440" long="-2.907933804199639" lat="54.37599546506077" type="ppl" gazref="unlock:10204" name="Windermere" conf="2.6">Windermere</enamex> - <enamex sw="w8453" long="-2.96358681023542" lat="54.4319364520582" type="ppl" gazref="unlock:11061737" name="Ambleside" conf="2.6">Ambleside</enamex> 38 Chap.</s> <s id="s76">Viii.</s>	 <s id="s77">A Kind of Apology for myself - <enamex sw="w8512" long="-2.98206973035289" lat="54.44823197501312" type="ppl" gazref="unlock:15013" name="Rydal" conf="2.6">Rydal</enamex> <enamex sw="w8518" long="-85.6422025" lat="35.9047873" type="other" gazref="unlock:7408922" name="Waterfalls Hollow" conf="0.7175190099">Waterfalls</enamex> - <enamex sw="w8531" long="-2.999" lat="54.4472" type="manual update" gazref="Geoname_ID_7288050" name="Rydal Water" conf="99992">Rydal Lake</enamex> - Ampitheatre around it - <enamex sw="w8568" long="-3.0252" lat="54.4584" type="manual_update"  gazref="Geoname_ID_2648201" name="Grasmere" conf="99991">Grassmere</enamex> - A Country Ale House - Went upon the Lake - An Attempt at Description - A Prayer for the Inhabitants - Crooked Chimney an Eyesore-- 42 Chap.</s> <s id="s78">Ix.</s>	 <s id="s79"><enamex sw="w8730" long="-2.907933804199639" lat="54.37599546506077" type="ppl" gazref="unlock:10204" name="Windermere" conf="2.6">Windermere</enamex>.</s> <s id="s80">- Too much Description - Thompson's Island-- 52</s>	</p>
<p> <s id="s81">Chap.</s> <s id="s82">X. <enamex sw="w8806" long="-2.907933804199639" lat="54.37599546506077" type="ppl" gazref="unlock:10204" name="Windermere" conf="2.6">Windermere</enamex>.</s> <s id="s83">- <enamex sw="w8820" long="-2.915738676011205" lat="54.36040070757029" type="ppl" gazref="unlock:11084353" name="Bowness-On-Windermere" conf="2.6">Bowness</enamex> - An Adder - Robin Partridge's Finger, and an old Irish Woman's Charms - Robin angry because I want Faith - Remnants of <enamex sw="w8948" long="-3.201549006999698" lat="54.13316968437257" type="fac" gazref="unlock:11148990" name="Furness Abbey" conf="2.18993776">Furness Abbey</enamex> Window - To see <enamex sw="w8978" long="-2.907933804199639" lat="54.37599546506077" type="ppl" gazref="unlock:10204" name="Windermere" conf="2.6">Windermere</enamex> to Advantage-- 60 Chap.</s> <s id="s84">Xi.</s>	 <s id="s85"><enamex sw="w9023" long="-2.935009110358855" lat="54.53103319127506" type="ppl" gazref="unlock:11241197" name="Patterdale" conf="2.6">Patterdale</enamex>.</s> <s id="s86">- Large farms detrimental - A Walk to <enamex sw="w9073" long="-2.935009110358855" lat="54.53103319127506" type="ppl" gazref="unlock:11241197" name="Patterdale" conf="2.6">Patterdale</enamex> - More Description - Six magnificent Mountains - The Vale of <enamex sw="w9145" long="-2.935009110358855" lat="54.53103319127506" type="ppl" gazref="unlock:11241197" name="Patterdale" conf="2.6">Patterdale</enamex> - Wild Strawberries - The Churchyard - The King of Patterdale's Palace - Could not get Admittance - The Prince's Sons fine Children - <enamex sw="w9290" long="-2.9206" lat="54.5761" type="manual update" gazref="unlock:11210312" name="Lyulph's Tower" conf="99992">Lyulph</enamex>'s Tower - March, quick one - Receipt against Fatigue - A hearty Meal - The Landlord - A Coin found - Custom relative to straggled Sheep - A Maid of Honour - The Quee thirsty-- 67 Chap.</s> <s id="s87">Xii.</s>	 <s id="s88"><enamex sw="w9493" long="-2.935009110358855" lat="54.53103319127506" type="ppl" gazref="unlock:11241197" name="Patterdale" conf="2.6">Patterdale</enamex>.</s> <s id="s89">- Set off again to the Palace - Meet an old Woman - Who she was - Enter into Conversation with Her Majesty - Some Gin - Her Majesty's Reasons for preferring Ale - The Disaster that gave us the Honour of her Company - Complains of the King - Her white Hand - Why she supposes we are rich - Her Poverty and Riches - The King an old fool - Observe the King - Her Majesty abuses him - Wants to sell two Wethers - The Queen getting more fuddled - Her own Account of her Behaviour at Church - Afraid we should have had a saline Lake - She gets worse and worse - The Parson of the Parish-- 79 Chap.</s> <s id="s90">Xiii.</s>	 <s id="s91">Strength of Recollection - A Rush bearing 87 Chap.</s> <s id="s92">Xiv.</s>	 <s id="s93">The King of Patterdale.</s> <s id="s94">- His great Age - Supposed why called so-- Astonishing Accumulation of Wealth - Mode of trying Strength of Ponies - Cast away on an uninhabited Island - Contrivance to eat his Victuals, without his Assistant knowing he had any - His peculiar Mode of letting Fields,&amp; c.</s> <s id="s95">- Partiality for Sugar - Only out-cunninged in his Amours - Excellent Character of his Son - His Majesty's Reasons for not giving to the Poor - The Queen offers her Grandaughter in Marriage - Respect paid to her by the Country People-- 92 Chap.</s> <s id="s96">XV.</s>	 <s id="s97">The Ascent of <enamex sw="w10732" long="-3.041800543566656" lat="54.47622985854962" type="mtn" gazref="unlock:11169680" name="Helm Crag" conf="2.4">Helm Crag</enamex>.</s> <s id="s98">- As the Subject of this Chapter is new to the Author, he chuses to say nothing more about it, but that he deals somewhat in Surmise, and he leaves the Decision to more learned Heads-- 100 Chap.</s> <s id="s99">Xvi.</s>	 <s id="s100"><enamex sw="w10949" long="-3.0765" lat="54.3361" type="manual_update"  gazref="Geoname_ID_2653454" name="Coniston Water" conf="99991">Coniston Lake</enamex> - Reasons for thinking a Man a Guide - The <enamex sw="w11006" long="-3.12208" lat="54.37042" type="other" gazref="unlock:4565407" name="Old Man of Coniston" conf="2">Old Man</enamex> - Impulse to visit it - Repent - The old Gentleman's mossy Cloathing - Sheep - A Spring - Views discernible - Easy Descent - <enamex sw="w11139" long="-2.989724572366603" lat="54.25573037981277" type="water" gazref="unlock:8791312" name="River Leven" conf="2.4">Leven</enamex>'s Cascade - Walk up a Casmate - <enamex sw="w11177" long="-71.1786601" lat="41.9484334" type="other" gazref="unlock:7674883" name="Copper Works" conf="0.7601933954">Copper Works</enamex> - Slate Quarry - A Volcano - Afraid to visit it - A young Man attempts, and swoons - His Manner to avoid being laughed at - Superstition - Full a Match Robin Partridge's - Ghosts - Whistling's a Charm against them 110 Chap.</s> <s id="s101">Xvii.</s>	 <s id="s102">A Peep into <enamex sw="w11435" long="-2.9169" lat="54.4143" type="manual update" gazref="unlock:11306427" name="Troutbeck" conf="99992">Troutbeck Dale</enamex> - All descriptive; if you do n't chuse to read it, let it alone - But take a Walk to it, and if you meet the same pretty Girl and obliging Person we did, so much the better 120 Chap.</s> <s id="s103">Xviii.</s>	 <s id="s104"><enamex sw="w11642" long="-2.96358681023542" lat="54.4319364520582" type="ppl" gazref="unlock:11061737" name="Ambleside" conf="2.6">Ambleside</enamex> <enamex sw="w11652" long="-1.88333" lat="53.05" type="other" gazref="unlock:4559105" name="Waterfall" conf="0.9041458471">Waterfall</enamex>.</s>  <s id="s105">-- A Copy of Verses introduced to shew you I am no despicable Poet; but as Poetry is a Drug, turn to the next Lead, and you will find I got a bad Tumble; with Advice to guard against such Disasters-- 124 Chap.</s> <s id="s106"><enamex sw="w11880" long="-73.55889999999999" lat="45.5032" type="other" gazref="unlock:5424495" name="Hotel XIX Siecle" conf="0.4947072129">Xix</enamex>.</s>	 <s id="s107">The <enamex sw="w11890" long="-0.3363635327428054" lat="51.08843733585681" type="fac" gazref="unlock:11319055" name="Westons Place" conf="1.001799431">Westons</enamex> - A Song to rock a Cradle by - Hawkeshead - An Epitaph calculated to remind us of the Instability of human Life - School Boys, a noble Sight - Cheapness of Boarding - A good School - A Debt of Honour - A Pastoral Dinner - People who live so - Fine <enamex sw="w12146" long="0.7304248583186485" lat="51.01440724281285" type="ppl" gazref="unlock:11299193" name="The Stocks" conf="1.478569235">Stocks</enamex> for fine Children - The Rathay and the Brathay - Haymakers at Dinner-- 129 Chap.</s> <s id="s108">XX.</s>	 <s id="s109">Roman Station - A large Frog - Charity - Character of a good Man-- 138 Chap.</s> <s id="s110">Xxi.</s>	 <s id="s111"><enamex sw="w12332" long="-3.043402327204126" lat="54.53913510713601" type="water" gazref="unlock:11169754" name="Helvellyn Gill" conf="2.4">Helvellyn</enamex>.</s> <s id="s112">- Full Moon - Course to <enamex sw="w12367" long="-3.043402327204126" lat="54.53913510713601" type="water" gazref="unlock:11169754" name="Helvellyn Gill" conf="2.4">Helvellyn</enamex> - Difficult Undertaking - Views - Violent Thirst - A Tarn - Dissuaded from drinking - A narrow Hill - <enamex sw="w12479" long="-3.216877183061965" lat="54.65436466085852" type="water" gazref="unlock:11071446" name="Bassenthwaite Lake" conf="2.4">Bassenthwaite Lake</enamex>-- 142 Chap.</s> <s id="s113">Xxiii.</s>	 <s id="s114"><enamex sw="w12523" long="-3.043402327204126" lat="54.53913510713601" type="water" gazref="unlock:11169754" name="Helvellyn Gill" conf="2.4">Helvellyn</enamex>.</s> <s id="s115">- <enamex sw="w12536" long="-3.043402327204126" lat="54.53913510713601" type="water" gazref="unlock:11169754" name="Helvellyn Gill" conf="2.4">Helvellyn</enamex> Man - Differently named - Liberty taken by the Author out of compliment to the Duke of Norfolk - A slight Sketch of his Character - Appearance of <enamex sw="w12692" long="-2.89078" lat="54.57564" type="manual update" gazref="ZZSH00028" name="Ullswater" conf="99992">Ullswater Lake</enamex> from <enamex sw="w12712" long="-3.043402327204126" lat="54.53913510713601" type="water" gazref="unlock:11169754" name="Helvellyn Gill" conf="2.4">Helvellyn</enamex> - Descent to a Spring - Our extreme Joy - A Copy of Verses-- 147 Chap.</s> <s id="s116">Xxiii.</s>	 <s id="s117"><enamex sw="w12806" long="-3.043402327204126" lat="54.53913510713601" type="water" gazref="unlock:11169754" name="Helvellyn Gill" conf="2.4">Helvellyn</enamex>.</s> <s id="s118">- Vanity on overlooking six Mountains - Mossy Sheathing giving Way - Rolling Stones down <enamex sw="w12905" long="-3.043402327204126" lat="54.53913510713601" type="water" gazref="unlock:11169754" name="Helvellyn Gill" conf="2.4">Helvellyn</enamex> - Caution in the Descent - <enamex sw="w12942" long="-3.2595" lat="54.5281" type="manual update" gazref="Norgate_ID_NY47223592" name="Wythburn Water" conf="99992">Wyburn Lake</enamex> - A Sheep Birth - A grand Canopy - A hearty Breakfast - and a chatty old Woman 156 Chap.</s> <s id="s119">Xxiv.</s>	 <s id="s120"><enamex sw="w13052" long="-3.125370693283439" lat="54.60160037173823" type="ppl" gazref="unlock:10824" name="Keswick" conf="2.6">Keswick</enamex>.</s> <s id="s121">- Road to <enamex sw="w13071" long="-3.125370693283439" lat="54.60160037173823" type="ppl" gazref="unlock:10824" name="Keswick" conf="2.6">Keswick</enamex> - <enamex sw="w13081" long="-3.125370693283439" lat="54.60160037173823" type="ppl" gazref="unlock:10824" name="Keswick" conf="2.6">Keswick</enamex> Fair - Once famous for Leather - Reasons for its Decay - Mirth replaces Profit 162 Chap.</s> <s id="s122">XXV.</s>	 <s id="s123">Crossthwaite's Museum - Refinement in little Vagrants - Description of the Playhouse - Their Music - A full House - Reasons for leaving it - Awoke by Dancing - A blind Fidler - 165 Chap.</s> <s id="s124">Xxvi.</s>	 <s id="s125"><enamex sw="w13382" long="-3.14956" lat="54.584" type="manual update" gazref="Geoname_ID_2651313" name="Derwentwater" conf="99992">Derwenter</enamex> Lake.</s> <s id="s126">- Went upon the Lake - A bottom Wind - Effect on the Boat - <enamex sw="w13458" long="-70.86005230000001" lat="42.8000916" type="other" gazref="unlock:7677882" name="Floating Island" conf="0.7870048683">Floating Island</enamex> - <enamex sw="w13476" long="-3.1574" lat="54.5877" type="manual_update"  gazref="Norgate_ID_NY253220" name="Silver Hill" conf="99991">Silver Hill</enamex> - Beautiful Compass of the Lake - Its Clearness - <enamex sw="w13538" long="-3.1366" lat="54.5563" type="manual update" gazref="unlock:11204948" name="Lodore Falls" conf="99992">Lowdore</enamex> <enamex sw="w13546" long="-1.88333" lat="53.05" type="other" gazref="unlock:4559105" name="Waterfall" conf="0.9041458471">Waterfall</enamex> - Wild Fruit - Curly Headed Children-- 171 Chap.</s> <s id="s127">Xxvii.</s>	 <s id="s128"><enamex sw="w13618" long="-3.14956" lat="54.584" type="manual update" gazref="Geoname_ID_2651313" name="Derwentwater" conf="99992">Derwenter</enamex> Lake.</s> <s id="s129">- <enamex sw="w13636" long="-3.1516" lat="54.5382" type="manual update" gazref="unlock:11084123" name="Bowder Stone" conf="99992">Bowdore</enamex> Stone - and many others forced from their Parent - Scope for Botany - <enamex sw="w13714" long="-3.15327" lat="54.52342" type="manual update" gazref="ZZSH00036" name="Borrowdale" conf="99992">Barrowdale</enamex> - Ascend <enamex sw="w13734" long="-3.090245821198284" lat="54.55669882687418" type="fac" gazref="unlock:11100762" name="Castle Crag (Fort)" conf="2.2">Castle Crag</enamex> - Interior Richness of <enamex sw="w13769" long="-3.15327" lat="54.52342" type="manual update" gazref="ZZSH00036" name="Borrowdale" conf="99992">Barrowdale</enamex> - Wad Mine - Herbert's Island - A Reflection on it - The Lady <enamex sw="w13842" long="-3.1588" lat="54.6018" type="other" gazref="unlock:5828527" name="Derwentwater Hotel" conf="2">Derwentwater</enamex>'s Escape - Manager's Speech on having a thin House - A short Account of him---- 177 Chap.</s> <s id="s130">Xxviii.</s>	 <s id="s131"><enamex sw="w13962" long="-3.275491839681807" lat="54.54589906722578" type="ppl" gazref="unlock:11094751" name="Buttermere" conf="2.6">Buttermere</enamex>.</s> <s id="s132">- Enchanting Walk - <enamex sw="w13994" long="-3.2987" lat="54.5273" type="manual update" gazref="Norgate_ID_NY16051545" name="Newlands Vale" conf="99992">Newland Valley</enamex> - Rustic Civility - Two <enamex sw="w14033" long="-85.6422025" lat="35.9047873" type="other" gazref="unlock:7408922" name="Waterfalls Hollow" conf="0.7175190099">Waterfalls</enamex> - Mountain Pastures - The Village of <enamex sw="w14081" long="-3.275491839681807" lat="54.54589906722578" type="ppl" gazref="unlock:11094751" name="Buttermere" conf="2.6">Buttermere</enamex> - 188</s>	</p>
<p> <s id="s133">Chap.</s> <s id="s134">Xxix.</s>	 <s id="s135"><enamex sw="w14114" long="-3.275491839681807" lat="54.54589906722578" type="ppl" gazref="unlock:11094751" name="Buttermere" conf="2.6">Buttermere</enamex>.</s> <s id="s136">- A Guide - Disagreeable Walk - <enamex sw="w14158" long="-3.275491839681807" lat="54.54589906722578" type="ppl" gazref="unlock:11094751" name="Buttermere" conf="2.6">Buttermere</enamex> and <enamex sw="w14173" long="-3.3" lat="54.55" type="manual update" gazref="unlock:4576184" name="Crummock Water" conf="99992">Crummack Lakes</enamex> - The Sound of <enamex sw="w14203" long="-3.306404041715465" lat="54.54556917612459" type="water" gazref="unlock:11278597" name="Scale Force" conf="2.4">Scale Force</enamex> <enamex sw="w14215" long="-1.88333" lat="53.05" type="other" gazref="unlock:4559105" name="Waterfall" conf="0.9041458471">Waterfall</enamex> - Its delicate Effect - Description of it - Reasons why the Inhabitants do n't know the Names of their Mountains - Natural Child - Candour of his Mother - Manner of supporting their Poor - Chapel and School both one - Without a Clergyman - Inhabitants used to chuse their own - Eagles - Schoolmaster officiates as Parson - Their Regret at the Want of one 192 Chap.</s> <s id="s137">XXX.</s>	 <s id="s138"><enamex sw="w14597" long="-3.275491839681807" lat="54.54589906722578" type="ppl" gazref="unlock:11094751" name="Buttermere" conf="2.6">Buttermere</enamex>.</s> <s id="s139">- Number of Families - Their Riches - Mode of paying Ale Duty, and of providing Provisions - Of procuring Surgeons for the Sick - A <enamex sw="w14741" long="-113.3200586" lat="46.0518684" type="other" gazref="unlock:8413063" name="Rainbow Mountain" conf="0.621763564">Rainbow</enamex> - Never but one Chaise in the Valley - Sally of <enamex sw="w14797" long="-3.275491839681807" lat="54.54589906722578" type="ppl" gazref="unlock:11094751" name="Buttermere" conf="2.6">Buttermere</enamex> - 199 Chap.</s> <s id="s140">Xxxi.</s>	 <s id="s141"><enamex sw="w14829" long="-3.139386682889271" lat="54.65511833106305" type="mtn" gazref="unlock:11284754" name="Skiddaw" conf="2.4">Skiddaw</enamex>.</s> <s id="s142">- Surmount <enamex sw="w14849" long="-3.1487" lat="54.6521" type="manual update" gazref="Geoname_ID_2637715" name="Skiddaw" conf="99992">Skiddow</enamex> - Delightful Views - The Source of the River Cauda - <enamex sw="w14910" long="-3.558147395720259" lat="55.06392868025198" type="ppl" gazref="unlock:11183468" name="Isle of Man" conf="1.521255179">Isle of Man</enamex> - <enamex  sw="w14924" name="Large admin unit">Ireland</enamex> - The Sun setting in <enamex  sw="w14953" name="Large admin unit">Scotland</enamex> - Severe Cold - Dotterel - 205</s>	</p>
<p> <s id="s143">Chap.</s> <s id="s144">Xxxii.</s>	 <s id="s145">Mountains - The <enamex sw="w15026" long="-3.12208" lat="54.37042" type="other" gazref="unlock:4565407" name="Old Man of Coniston" conf="2">Old Man</enamex> - <enamex sw="w15036" long="-3.1487" lat="54.6521" type="manual update" gazref="Geoname_ID_2637715" name="Skiddaw" conf="99992">Skiddow</enamex> - <enamex sw="w15046" long="-3.043402327204126" lat="54.53913510713601" type="water" gazref="unlock:11169754" name="Helvellyn Gill" conf="2.4">Helvellyn</enamex> and <enamex sw="w15060" long="-3.041800543566656" lat="54.47622985854962" type="mtn" gazref="unlock:11169680" name="Helm Crag" conf="2.4">Helm Crag</enamex> - 210 Chap.</s> <s id="s146">Xxxiii.</s>	 <s id="s147"><enamex  sw="w15093" name="Too ambigious to allocate">Castle Hill</enamex> - <enamex sw="w15107" long="-3.120972294" lat="54.55563955" type="manual update" gazref="ZZSH00119" name="Ashness Fell" conf="99992">Ashness Rock</enamex> - <enamex  sw="w15122" name="Not a placename">Hutton</enamex>, the Guide - His Researches - His Gratitude - <enamex sw="w15175" long="-3.125370693283439" lat="54.60160037173823" type="ppl" gazref="unlock:10824" name="Keswick" conf="2.6">Keswick</enamex> Bellman - 214 Chap.</s> <s id="s148">Xxxiv.</s>	 <s id="s149">The Effect of Echo on the Lake - An Irishman's Account of the <enamex sw="w15275" name="Lake of Killarney">Lake of Killarney</enamex> - 219 Chap.</s> <s id="s150">XXXV.</s>	 <s id="s151">Observations.</s> <s id="s152">- Remarks and Observations previous to leaving the Lakes, which, I hope, may not be deemed intruding 223 Chap.</s> <s id="s153">Xxxvi.</s>	 <s id="s154">The Road to <enamex sw="w15461" long="-2.75205279814005" lat="54.66713013349954" type="ppl" gazref="unlock:11243307" name="Penrith" conf="2.6">Penrith</enamex> - <enamex sw="w15471" long="-2.665056498919776" lat="55.03613233380358" type="mtn" gazref="unlock:11072261" name="Beacon, The" conf="1.342112992">The Beacon</enamex> - Rich Country - The Borderers - <enamex sw="w15515" long="-0.7334461399619994" lat="52.22650299344568" type="fac" gazref="unlock:11101189" name="Castle, The" conf="1.2">The Castle</enamex> 236 Chap.</s> <s id="s155">Xxxvii.</s>	 <s id="s156">The Church - Ravages of the Plague - Ancient Stones in the Churchyard - Vulgar Opinion about them - Respect for the Grave of an old Woman - 241</s>	</p>
<p> <s id="s157">Chap.</s> <s id="s158">Xxxviii.</s>	 <s id="s159"><enamex sw="w15710" long="-2.933353248091587" lat="54.56025302065807" type="civil" gazref="unlock:13477559" name="Ullswater Ward" conf="2.4">Ullswater</enamex>.</s> <s id="s160">- <enamex sw="w15723" long="-2.89078" lat="54.57564" type="manual update" gazref="ZZSH00028" name="Ullswater" conf="99992">Ullswater Lake</enamex> - First Arm of it - Singular Preservation of a Man and his Horse - <enamex sw="w15805" long="-2.8859" lat="54.5424" type="manual update" gazref="Geoname_ID_7300150" name="Martindale" conf="99992">Martindale Valley</enamex> and Fells - Famous for the wild Stag - Grand Appearance of <enamex sw="w15882" long="-3.043402327204126" lat="54.53913510713601" type="water" gazref="unlock:11169754" name="Helvellyn Gill" conf="2.4">Helvellyn</enamex> - <enamex sw="w15894" long="-2.9175" lat="54.5825" type="manual update" gazref="Norgate_ID_NY408212" name="Gowbarrow Park" conf="99992">Gowborough Park</enamex> - Deer, Cattle,&amp; c.</s> <s id="s161">- 213 Chap.</s> <s id="s162">Xxxix.</s>	 <s id="s163"><enamex sw="w15952" long="-2.933353248091587" lat="54.56025302065807" type="civil" gazref="unlock:13477559" name="Ullswater Ward" conf="2.4">Ullswater</enamex>.</s> <s id="s164">- <enamex sw="w15965" long="-2.9206" lat="54.5761" type="manual update" gazref="unlock:11210312" name="Lyulph's Tower" conf="99992">Lyulph</enamex>'s Tower - Duke of N---- k - Style of Living there - The Cascade - Shape of the Lake - King Arthur's <enamex sw="w16075" long="-2.177585627411565" lat="54.49856468880679" type="fac" gazref="unlock:11273454" name="Round Table or Roper Castle" conf="2.2">Round Table</enamex> - A modern Shrubbery - Why <enamex sw="w16114" long="-2.89078" lat="54.57564" type="manual update" gazref="ZZSH00028" name="Ullswater" conf="99992">Ullswater Lake</enamex> exceeds others - 250 Chap.</s> <s id="s165">XL.</s>	 <s id="s166">Leave <enamex sw="w16169" long="-2.75205279814005" lat="54.66713013349954" type="ppl" gazref="unlock:11243307" name="Penrith" conf="2.6">Penrith</enamex> - Carpet Manufactory - A Collection of Timber - Of Haystacks - <enamex sw="w16240" long="-3.0087276458427" lat="54.38662522640403" type="ppl" gazref="unlock:11188788" name="Knipe Fold" conf="2.6">Knipe</enamex> <enamex sw="w16246" long="-2.400207710227231" lat="51.95387868365174" type="ppl" gazref="unlock:11278889" name="Scarr, The" conf="1.411380458">Scarr</enamex> - Vale and Village of <enamex sw="w16274" long="-2.75006695239094" lat="54.55928585398094" type="ppl" gazref="unlock:11068932" name="Bampton" conf="2.6">Bampton</enamex> - <enamex sw="w16284" long="-2.8025" lat="54.5218" type="manual update" gazref="Geoname_ID_2647299" name="Haweswater" conf="99992">Hawswater</enamex> Lake - Bampton Free School - A Village School a good Nursery for Morals - Druidical Stones at <enamex sw="w16388" long="-2.674448741019668" lat="54.53021842046294" type="ppl" gazref="unlock:28741" name="Shap" conf="2.6">Shap</enamex> - <enamex sw="w16395" long="-3.21196" lat="54.13169" type="other" gazref="unlock:5827283" name="Abbey Park Hospital The" conf="1.982326366">The Abbey</enamex> - The Conclusion - A Copy of Verses - 256</s>	</p>
<p><s id="s167">A Fortnight's Ramble.</s> </p>
<p><s id="s168">Chap.</s> <s id="s169">I.</s>
</p>
<p> <s id="s170">A slight Tough of a <enamex sw="w16503" long="1.384932645085696" lat="51.38410631863947" type="ppl" gazref="unlock:11213629" name="Margate" conf="1.961658872">Margate</enamex> Hoy, not to be read before Breakfast, except you have been in a <enamex sw="w16575" long="-112.1648756" lat="33.6000401" type="other" gazref="unlock:8028269" name="Cactus Gale V" conf="0.9046659376">Gale</enamex> of Wind at Sea.</s></p>
<p><s id="s171">I Was sitting very comfortably in Garner's gallery at <enamex sw="w16650" long="1.384932645085696" lat="51.38410631863947" type="ppl" gazref="unlock:11213629" name="Margate" conf="1.961658872">Margate</enamex>, and had forgot I had taken my passage in the Hoy, until I saw its warping out.</s> <s id="s172">I made the best use of my legs, took a boat, and was just in time to be the last to complete a full cargo of live stock; we were in hopes of a tolerable good passage, but were most rollingly becalmed off the <enamex sw="w16946" name="Reculvers">Reculvers</enamex>; there were many vessels in sight, and one man said--" There is some comfort in seeing others in the same situation with ourselves."--" You are a d-- d fool for your pains,( said a rough cit) a calm is a stagnation in trade, it can do no good, but a foul wind to some is a fair one to others."--" That's all fair, master," said the man at the helm.</s></p>
<p><s id="s173">It was hot upon deck, but it was an oven below, and I observed most of us amused ourselves by complaining of want of wind,&amp; c.</s> <s id="s174">A very quizzish looking man threw himself into a knowing attitude, and was apparently making remarks very earnestly through the spy glass without perceiving the bottom case was on it.</s>  <s id="s175">--" Pray, Sir," says a wag," is that a ship or a brig you are looking at?"--" The people walk about so, ca n't touch it."-- He did not seem to enjoy the mistake, but he did not" touch" the glass again during the trip.</s></p>
<p><s id="s176">After rolling about some time whistling for a wind, as ostlers do to their horses when drinking, a breeze sprung up, and sickness, which had already whitewashed several faces, began to stir about.</s> <s id="s177">I first observed it in a young lady, who might have belonged to the family of the"--' s" by the stiff fineries she had about her.</s> <s id="s178">Her anxious mama persuaded her" Deary" to go into the cabin, which was a signal to begin; and by what part of curiosity I was induced to follow, I know not.</s></p>
<p><s id="s179">An old fat man, wedged in a two - armed chair, was consoling and envying her.</s>  <s id="s180">--" That's nice, Miss-- it comes up finely-- Oh! it would do me rare good!-- that's bravely done, Miss!-- I thought I observed, in the midst of pity and exclamations, he only wanted inducements to make himself sick; and in confirmation of my surmise, he pulled a bottle of chamomile tea out of his pocket, and swigged heartily; but with all his provocatives, he was but rewarded with some loud Hickups, and a copious perspiration, to guard against the ill effects of which, he put one handkerchief under his wig, and mopped his face and hands with another.</s></p>
<p><s id="s181">Miss went on" bravely," and I once heard une échappée from the perpendicular extremity of the mouth.</s> <s id="s182">As for the old gentleman, he stuck close to his seat, and Complained most bitterly that he could not be sick.</s></p>
<p><s id="s183">We were obliged to drop anchor three times, and performed a voyage in twenty seven hours which is often done in ten.</s> <s id="s184">I lay down for a short time in a crib bed, but I was so besieged by an army of fleas, I went upon deck, and trudged sulkily the rest of the night.</s></p>
<p><s id="s185">A Billingsgatean lady chose to scold me for walking; but as I preferred her mellifluent abuse to the stench of a crowded cabin, and a million of other animals, I was all silence, and roughed it as well as I could.</s> <s id="s186">About eleven the next morning a breeze sprung up, and expelled the clouds both from our faces and the atmosphere, and a coarse kind of wit took place of the sullenness the calm had occasioned.</s></p>
<p><s id="s187">I want words to do justice to the satisfaction I felt in going up the river; my cares vanished - I was not only delighted with the streets of ships we sailed through, but felt an honourable pride in belonging to a country that brings the trade of all the world into its bosom.</s> <s id="s188">I was rich from seeing the riches around me, and I thanked my God that I was - a Briton.</s></p>
<p><s id="s189">Chap.</s> <s id="s190">Ii.</s>
</p>
<p> <s id="s191">A Mail Coach.</s></p>
<p><s id="s192">Set off in the <enamex sw="w20272" long="-1.475695967674255" lat="53.75947761535645" type="ppla" gazref="unlock:14126330" name="Leeds" conf="2.531625757">Leeds</enamex> mail coach with a fair wind and a scowling sky; our company consisted of my friend, a <enamex sw="w20364" long="-1.280461609363556" lat="53.3954906463623" type="ppla" gazref="unlock:14126500" name="Sheffield" conf="2.367695635">Sheffield</enamex> manufacturer, a maiden lady of a certain age with a large band box, big enough to have purloined a Jemmy Jumps, but which we will suppose was better furnished with head ornaments to surprise a country village.</s> <s id="s193">We had an opportunity of examining each other's faces for about an hour, and then the evening became very" Sirish, Madamish," and, on the part of little <enamex sw="w20737" long="-1.280461609363556" lat="53.3954906463623" type="ppla" gazref="unlock:14126500" name="Sheffield" conf="2.367695635">Sheffield</enamex>, rather" snoringish;" we wanted a refreshment of tea to make us chatty.</s> <s id="s194">While it was preparing, the honest Yorkshireman took off his wig, and was turning the curls nicely over his fore finger, to the great disgust and suprise of the lady.</s> <s id="s195">He tried all that putting on his wig, and begging pardon, could do, but her stomach had received so severe a shock, she declared" the man" had spoilt her breakfast.</s> <s id="s196">However she was afterwards pleased to open her family budget, and began to be more familiar; but the poor culprit was never more honoured with a word or even a look.</s> <s id="s197">I suppose a concatenation of ideas would have made her sick if she had seen the wig; and he was so dumbfounded we entirely lost him, until a carriage came to meet her.</s> <s id="s198">Her family head bridled up at this distinction, and she wished us a" good afternoon" with an air of superiority.</s></p>
<p><s id="s199">Her departure was a signal for little <enamex sw="w21640" long="-1.280461609363556" lat="53.3954906463623" type="ppla" gazref="unlock:14126500" name="Sheffield" conf="2.367695635">Sheffield</enamex> to begin, his countenance brightening up, and we found him, barring a few grammatical errors, as clever a man as you could meet with on a Summer's day.</s> <s id="s200">He gave us an account of the trade of his native town, and entered, in a workmanlike manner, into the manufacturing part of it.</s> <s id="s201">He told us what branches flourish most now, and what must always succeed; how the town became commercial, owing to the pride and severity of the citizens of <enamex sw="w22087" long="" lat="" type="manual_update"  gazref="unlock:9659" name="" conf="99991">York</enamex> to some foreign artisans, by whipping them out of the city.</s> <s id="s202">They not only thought this ill-judged cruelty meritorious, but keep an holiday in remembrance of it, and that trade has never held up its head in <enamex sw="w22298" long="" lat="" type="manual_update"  gazref="unlock:9659" name="" conf="99991">York</enamex> since, though so well situated for it.</s> <s id="s203">In all his conclusions he never spoke favourably of any thing that had not honesty to regulate it.</s> <s id="s204">He had figured the Address to His Majesty about the proclamation, and said," For what could we hope for more than what we have; to be sure there are people that wish to kick up hubblety bubbletys in <enamex sw="w22640" long="-1.280461609363556" lat="53.3954906463623" type="ppla" gazref="unlock:14126500" name="Sheffield" conf="2.367695635">Sheffield</enamex>, but they are more Noise than Numbers."</s></p>
<p><s id="s205">The little Wig vanished, and I esteemed him full as much as if he had been decorated with a ramillied peruke.</s> <s id="s206">Had we not been so near his house, we should have had a more extensive lesson of ingenuity; but the misfortune is, man is too apt to find out the value of any thing when he is about to lose it.</s></p>
<p><s id="s207">It was half past two on Monday morning when we reached <enamex sw="w23049" long="-1.475695967674255" lat="53.75947761535645" type="ppla" gazref="unlock:14126330" name="Leeds" conf="2.531625757">Leeds</enamex>, our cloathes being thoroughly drenched in the boot of the mail coach, from the overflowing of the <enamex sw="w23154" long="-1.63657791309686" lat="52.79917207929144" type="ppl" gazref="unlock:11094178" name="Burton upon Trent" conf="1.397491079">Trent</enamex>; the devastation in <enamex  sw="w23180" name="Large admin unit">Leicestershire</enamex> and parts of <enamex sw="w23208" long="-0.8284193873405457" lat="52.30640602111816" type="civila" gazref="unlock:14122434" name="Northamptonshire" conf="1.664133491">Northamptonshire</enamex> and <enamex sw="w23229" long="-0.9832161366939545" lat="53.12984466552734" type="civila" gazref="unlock:14124735" name="Nottinghamshire" conf="1.648737483">Nottinghamshire</enamex> was dreadful; the low grounds were covered with water, and a considerable quantity of hay was hanging on the hedges in the lanes, and even on the high road.</s></p>
<p><s id="s208">Chap.</s> <s id="s209">Iii.</s>
</p>
<p> <s id="s210">Cross the Country to <enamex sw="w23436" long="-2.745809060481465" lat="54.32561646560368" type="ppl" gazref="unlock:11185036" name="Kendal" conf="3.093870132">Kendal</enamex>-- Fatigue-- Covered by Sancho Panca's incomparable Cloak-- The River Ken-- Salmon leaping-- <enamex sw="w23550" long="-2.989724572366603" lat="54.25573037981277" type="water" gazref="unlock:8791312" name="River Leven" conf="2.4">Leven</enamex>'s Park-- The House-- A Liquor called <enamex sw="w23599" long="-5.0000000" lat="32.0000000" type="country" gazref="geonames:2542007" name="Morocco" conf="2.169187535">Morocco</enamex>-- <enamex sw="w23612" long="-2.7759" lat="54.2433" type="manual update" gazref="unlock:13903834" name="Heversham" conf="99992">Haversham Village</enamex>-- Sexton, a Man of Feeling.</s></p>
<p><s id="s211">At five the same morning we got into a cross-country coach for <enamex sw="w23724" long="-2.745809060481465" lat="54.32561646560368" type="ppl" gazref="unlock:11185036" name="Kendal" conf="3.093870132">Kendal</enamex>; we passed through a chain of valleys, frequently keeping the <enamex sw="w23793" long="-2.583427834410504" lat="53.71527076234948" type="water" gazref="unlock:11193606" name="Leeds and Liverpool Canal" conf="1.4">Leeds canal</enamex> and a river in view; the most disagreeable part was the jolting of the clumsy coach with a lazy pair of horses: as long as it was light, the variety of scene kept us in amusement; but it was no sooner dark than every shake of the carriage had an uncomfortable effect.</s> <s id="s212">I tried to sleep, but tried in vain; and we thought it an age before we reached <enamex sw="w24153" long="-2.73716" lat="54.32385" type="manual_update"  gazref="ZZSH00067" name="Kendal" conf="99991">Kendall</enamex>, which was past twelve o'clock.</s>  <s id="s213">-- Sleep, to use the language of honest Sancho Pança," covered me with a cloak," and presented me after ten hours oblivion with a cheerful flow of spirits.</s></p>
<p><s id="s214">At eleven we set off for <enamex sw="w24376" long="-2.989724572366603" lat="54.25573037981277" type="water" gazref="unlock:8791312" name="River Leven" conf="2.4">Leven</enamex>'s along the banks of te Ken, which winds its clear course amongst rich pastures, stocked with lusty cattle, hanging woods, ragged rocks, and thick hay fields; we were often charmed with the noise of the river, foaming down broad wears; near one of them, close to the powder mills, is a stout bridge, whose arches extend from rock to rock covered with verdure; we sat near it half an hour watching abundance of salmon attempting to rise the fall, and sometimes leaping sideways at a fly, all of them appearing eager to get up, some succeeded to the first rise of the fall, and some fell again into the foam.</s></p>
<p><s id="s215">How delightfully we were seated to hear the music of the river! - to see the banks cloathed with hanging trees of various green, and under a certain bushy part on the opposite side, large drops were tinkling down, raising distinct and high effects! - I felt that charming placidness within me, that convinced me I am a son of nature; we left with regret this scene, but only to enjoy other beauties.</s></p>
<p><s id="s216">About a mile from the mills, and to the left of the river, we entered <enamex sw="w25459" long="-2.989724572366603" lat="54.25573037981277" type="water" gazref="unlock:8791312" name="River Leven" conf="2.4">Leven</enamex>'s park, passing through a long avenue of lime and beech trees, still keeping the Ken which divides <enamex sw="w25564" long="-81.47375" lat="28.58473" type="other" gazref="unlock:10792570" name="The Groves Mobile Home Park" conf="0.7315434572">the park</enamex>, stocked with deer on both sides: we had here a sight of the sands, with two vessels at anchor; I was struck with the recollection of having seen the sea four hundred miles off in as many days; but this instantly have way to the respect I felt, in admiring the matchless work of nature.</s></p>
<p><s id="s217">On approaching the house, we perceived they were busy in housing hay, and saw a gentleman and two ladies come out of the garden: anxious to see all we could, yet fearful to be thought intruding, we were asking questions from one of the hay-men, when the gentleman politely came up to us, and offered to show us the house:-- he was steward to the lady Andover, and had come that day to overlook the workmen.</s></p>
<p><s id="s218">The house is turreted, and has stone winding steps to the leads, from which you have a prospect charmingly variegated and backed by high mountains; the rooms are generally of oak, and several of them are decorated with the <enamex  sw="w26493" name="Not a placename">Bellingham</enamex> arms with different quarterings; these are too painted in the windows.</s> <s id="s219">In the great hall there are several coats of armour; one breast plate appears to have had a ball dinted against it: the seasons are curiously expressed by carved figures in the wainstcot with verses under them in old fashioned rhyme: the beds are very old, and the curtains are as ragged as a pair of colours that might have belonged to a distinguished regiment that was at the battle of <enamex sw="w26963" long="173.9365921020508" lat="-41.51291847229004" type="ppla" gazref="unlock:14127048" long="-1.37" lat="51.8518" type="manual update" gazref="ZZSH00022" name="Blenheim Palace" conf="99992">Blenheim</enamex>; the tapestry is expressive of religious and moral subjects, but it does not seem the work of good looms, perhaps it was made before that kind of weaving was brought to the perfection of the last century.</s></p>
<p><s id="s220">Every part of this respectable house, except what was once wove, may yet last for ages.</s> <s id="s221">The wainscot and floors are in thorough repair; and the latter shone so bright, I was obliged to tread with caution lest I should tumble; much as the Bellinghams have to regret the loss of these estates, they are in hands that pay attention to repairs, for I never saw an old uninhabited house taken such care of.</s></p>
<p><s id="s222">We were regaled by a liquor called <enamex sw="w27614" long="-5.0000000" lat="32.0000000" type="country" gazref="geonames:2542007" name="Morocco" conf="2.169187535">Morocco</enamex>, which is made in no other place in the kingdom, and has been peculiar to it time out of mind; it is of a high colour, and is made from malt and hops; has an acid taste, and does not ferment; for, if it was to be left in a glass for a week, they say it would be equally good as at the moment it was poured out; I confess I relished it, perhaps because there is none of the same sort any where else.</s></p>
<p><s id="s223">As the steward must have business to transact, my friend and I walked to <enamex sw="w28094" long="-0.7958882902470785" lat="52.0832846622841" type="ppl" gazref="unlock:11167567" name="Haversham" conf="1.590458958">Haversham</enamex>, a village upon a hill, famous for a school that has produced some great scholars, and recently unfortunate by two youths being drowned near <enamex sw="w28245" long="-2.989724572366603" lat="54.25573037981277" type="water" gazref="unlock:8791312" name="River Leven" conf="2.4">Leven</enamex>'s; this accident, which near town would only occasion the general gloom of a minute, seemed to throw sorrow over the face of the sexton, whilst he showed us the grave.</s></p>
<p><s id="s224">Chap.</s> <s id="s225">Iv.</s>
</p>
<p> <s id="s226">A Village Dancing Master - An aged Matron - Rustic Politeness on her Entrance - A Hornpipe - The <enamex sw="w28528" long="-88.1597984" lat="42.0772486" type="other" gazref="unlock:7643220" name="Mill Rose Farm RLA Airport" conf="0.7309128011">Rose</enamex> Dance - Farmer's Servant - A Barn Dancing School - The Church Dinner - Return to <enamex sw="w28614" long="-2.788353495453104" lat="54.27053820434658" type="ppl" gazref="unlock:28630" name="Levens" conf="2.6">Levens</enamex> - The Gardens - Antiquated Housekeeper - Kitchen <enamex sw="w28670" long="-2.760687641054082" lat="54.29855809016919" type="other" gazref="unlock:11158229" name="Grate" conf="2">Grate</enamex>.</s></p>
<p><s id="s227">The sexton was landlord of the Eagle and Child, and whilst his good woman was dressing our dinner, we were induced from seeing a number of boys shoes, and hearing the sound of a fiddle in a barn, to become spectators.</s> <s id="s228">About thirty boys and girls were assembled for a quarter's instruction.</s> <s id="s229">The master had more the appearance of a man than of a dancing master, although he was well qualified for the latter in the opinion of the children's parents; we will imagine it was a public day, for there were several spectators, and we observed an aged matron upwards of eighty supported by two women, bending her slow steps towards the school; on her entrance there was a general reverence, and one man went into the house to bring her a two - armed chair.</s>  <s id="s230">-- If this was not politeness, tell me, ye supple sons of courts, what it was?</s></p>
<p><s id="s231">One of the boys danced a hornpipe with hat aside and stick under his arm, tipping most vehemently with heel and toe, but in a very good time: the master often threw his eyes upon the strangers, and I took care to give as much satisfaction to my face as I possibly could, though really not more than I felt.</s> <s id="s232">After the hero had sweated over his part, nine girls danced a Cotillon in time and step that would not have disgraced a ball room, and what had a singular and rustic effect, whilst they were going in the circle in pairs, the odd number stepped into the centre, pulled a red rose from her breast, which she held up as she danced round, until she led to another step, and always when she joined hands with the others, she replaced her rose near cheeks that vied with it in healthful beauty.</s></p>
<p><s id="s233">Why should so innocent a dance be called a Cotillon?</s> <s id="s234">I think it ought to have an English name-- where is the harm then of my naming it <enamex sw="w30439" long="-92.2109811" lat="34.7587027" type="other" gazref="unlock:6878670" name="Rose City Church of the Nazarene" conf="0.7936653477">the Rose</enamex> Dance?</s></p>
<p><s id="s235">As there was a tall boy of about seventeen that had the appearance of a farmer's servant, who wanted to dance, my friend was afraid we should abash him, if we remained, so we went away.</s> <s id="s236">This lad had the look of a determined candidate for a prize dance; he forced out his toes, until he grinned to it, and looked so eagerly at the dancers, I should have thought they were all his sweethearts; but upon recollection I am persuaded he was thinking," if I wur doncing Ied never give out."</s></p>
<p><s id="s237">As I wished to take in all I possibly could, I observed a wooden hoop with three tin sockets hanging in the centre of the barn, to be ready any evening for a village dance.</s></p>
<p><s id="s238">From this feat of rustic agility we departed, after saying in whispers loud enough to be overheard," how well they danced."</s> <s id="s239">I made my very best obeisance when we departed, and bows and curtsies attended us; the old good woman put her arms upon the chair and showed the same inclination: I sat next to her, and I bestowed so many praises upon the young ones, I think I have a gleam of cheerfulness to her heart.</s></p>
<p><s id="s240">I could not help overhearing whilst one of the boys was dancing his hornpipe, if not in an elegant, in a difficult, manner, one of them said to another," I con do that," these trifles became second nature to me, and I silently gloried in them.</s></p>
<p><s id="s241">We afterwards went into the church, which is a plain old one; it was burnt down early in the last century, so that we could only trace the births and burials from the year 1605.</s> <s id="s242">In the chancel belonging to the Bellinghams there is a handsome monument upon one of the females, dated 1626, with verses expressive of her many virtues, and those of her husband, which has been lately put in repair by a gentleman related to her maiden name; on examining the registers, there is no mention of her being buried there.</s></p>
<p><s id="s243">By this time dinner was ready; I cannot say I eat heartily, my appetite had given way to the scenes we had been engaged in: when we asked what we had to pay, the landlady hesitated, as if she thought she was going to overcharge, and hoped we should" not think eight pence a piece too much."</s></p>
<p><s id="s244">In two hours from our leaving <enamex sw="w32601" long="-2.788353495453104" lat="54.27053820434658" type="ppl" gazref="unlock:28630" name="Levens" conf="2.6">Levens</enamex> we were returned, as Mr. R-- promised us the pleasure of walking with us to <enamex sw="w32687" long="-2.745809060481465" lat="54.32561646560368" type="ppl" gazref="unlock:11185036" name="Kendal" conf="3.093870132">Kendal</enamex>, and sent off his horse for that purpose.</s></p>
<p><s id="s245">The gardens are laid out in the Dutch style and were planned by King James's Gardener, who resided during the part of his master's troubles with the then owner of it, the person who, it is said, took advantage of the national disturbances of possessing the estate.</s> <s id="s246">I have heard that <enamex  sw="w33019" name="Not a placename">Bellingham</enamex> followed the fortunes of King James, and to preserve this estate in his family, made it over to a man he thought his friend, but who was either too partial to the beauties or the profits of it; and it is even traditioned by poor people of the name of <enamex  sw="w33281" name="Not a placename">Bellingham</enamex>, now residing in <enamex sw="w33309" long="-2.745809060481465" lat="54.32561646560368" type="ppl" gazref="unlock:11185036" name="Kendal" conf="3.093870132">Kendal</enamex>, that the estate was never paid for.</s></p>
<p><s id="s247">The gravel walks are broad and long, and each alley and yew tree has is brother; these are too formal to be interesting, besides they were the heavy taste of a man that had deformed the beauties of nature.</s> <s id="s248">The only curiosity I observed, and which I think is easily account for, is of a tree whose trunk is cut off a foot from the earth, and whose branches were engrafted into another tree; it was in full foliage, and seemed alive to the bottom of the trunk; although it may once have been a complete tree, its neighbour becomes a parent, and the sap of it in Winter must go into the root.</s></p>
<p><s id="s249">After we returned into the house, my friend went into the kitchen, and slipt half a crown into the hand of an old curiously dressed housekeeper, who looked as antiquated as one of the wooden figures in the hall; she waddled plenty of dropping curtsies, with a" Thank you, Sir" to every one of them.</s> <s id="s250">The hospitality of <enamex sw="w34261" long="-2.788353495453104" lat="54.27053820434658" type="ppl" gazref="unlock:28630" name="Levens" conf="2.6">Levens</enamex> must have been very general, for the kitchen grate is large enough to roast an ox, and I dare say good eating and morocco were plentifully distributed.</s></p>
<p><s id="s251">Chap.</s> <s id="s252">V.</s>
</p>
<p><s id="s253">Petrifactions-- <enamex sw="w34449" long="-2.745809060481465" lat="54.32561646560368" type="ppl" gazref="unlock:11185036" name="Kendal" conf="3.093870132">Kendal</enamex> Church-- A Barber, a Man of Family.</s></p>
<p><s id="s254">About six we crossed the river, and passed through <enamex sw="w34546" long="-81.47375" lat="28.58473" type="other" gazref="unlock:10792570" name="The Groves Mobile Home Park" conf="0.7315434572">the park</enamex> amidst those trees that looked so majestic when we were opposite to them; two aged beech trees towered an amazing height over the others; we continued upon a high bank until we approached a large piece that had tumbled into a hole, once famous for drawing salmon, but now their safe retreat; this piece is composed of petrifactions, a larger quantity that I ever saw before, occasioned from a lime-stone spring.</s></p>
<p><s id="s255">A person asked permission to get some, and took so much, that it occasioned the obstruction.</s> <s id="s256">I mention this, as nothing can be more ill judged than taking advantage of a wish to oblige, and by this act, a deep serpentine part of the river loses half its beauty, and the best stocked part of the fishery is rendered useless; thus far the tide comes up, and in spring tides, the water near the house is brackish.</s></p>
<p><s id="s257">We sometimes passed through corn fields, but oftener through pasture, never losing sight of the river, and we were often entertained by little streams tinkling down the hill.</s> <s id="s258">I should never have been fatigued, but on entering <enamex sw="w35604" long="-2.745809060481465" lat="54.32561646560368" type="ppl" gazref="unlock:11185036" name="Kendal" conf="3.093870132">Kendal</enamex> the stones made my feet sore.</s></p>
<p><s id="s259">We looked in the church, which is a very large one, with handsome stone pillars.</s> <s id="s260">In a chancel belonging to the Bellinghams, there is an extraordinary large tomb without a date, and from the brass figure having been purloined, it must have suffered under the depredations of civil war; there are several other monuments, for there was at one time a baronet and two knights of this name in the country, who had separate houses, and possessed considerable property in it.</s></p>
<p><s id="s261">The history of the county mentions this family as extinct, several branches are still in being.</s> <s id="s262">The Bellinghams, of Castle <enamex  sw="w36233" name="Not a placename">Bellingham</enamex> in <enamex  sw="w36247" name="Large admin unit">Ireland</enamex>, are from a collateral line, and Roger Palmer, Esq. of Rush, in <enamex  sw="w36319" name="Large admin unit">Ireland</enamex>, with his sister and her children, are immediate descendants from the oldest branch; and as it is a family that has suffered from civil war, and other causes, there may be many descendants that may have sunk into the common mass of misfortunes, and whose poverty has only preserved the name.</s></p>
<p><s id="s263">The day following being constant rain, I have noted down, as I well as could recollect, the pleasures of yesterday, and I trust they will never leave my memory.</s></p>
<p><s id="s264">There is a barber of the name of <enamex  sw="w36814" name="Not a placename">Bellingham</enamex> living under this roof, that says he is a descendant; I understand when he gets too much of Sir John Barleycorn in his head, he is wondrous proud of it: his friends sometimes laugh at him, and ask him by what bye branch he is related to it: I had some conversation with him, and he has" our family" and" my ancestors" very pat.</s></p>
<p><s id="s265">Chap.</s> <s id="s266">Vi.</s>
</p>
<p><s id="s267">Obelisk-- Children in <enamex sw="w37191" long="-2.745809060481465" lat="54.32561646560368" type="ppl" gazref="unlock:11185036" name="Kendal" conf="3.093870132">Kendal</enamex> sickly-- Industry-- <enamex sw="w37224" long="-72.882879" lat="41.6434317" type="other" gazref="unlock:7580365" name="New Haven and Northampton Canal" conf="0.7384167448">New Canal</enamex>-- Tenter Grounds-- A Man of ingenuity.</s></p>
<p><s id="s268">We went this morning to an Obelisk erected in 1788 upon a considerable tumulus, in remembrance of the Revolution:-- I think it is too small an object for the noble mount it stands upon; when I saw it yesterday at a distance, it looked like a tall chimney; opposite to it stands the remains of the castle, where Catherine Parr was born: it still wears a grand resemblance of what castles were in former days, though it is mouldering away under the iron hand of time.</s></p>
<p><s id="s269">The children in <enamex sw="w37764" long="-2.745809060481465" lat="54.32561646560368" type="ppl" gazref="unlock:11185036" name="Kendal" conf="3.093870132">Kendal</enamex> look very sickly, but in the neighbourhood they are a rosy race: perhaps they suffer from the nap of the woollen manufactory, which is continually flying about, clogging their infant lungs.</s></p>
<p><s id="s270">There is a meritorious spirit of industry amongst them, and the country people, both men and women, were knitting stockings as they drove their peat carts into the town.</s></p>
<p><s id="s271"><enamex sw="w38131" long="-105.29138" lat="39.88832" type="other" gazref="unlock:8157556" name="Coal Creek Peak" conf="0.7446946305">Coal</enamex> is very dear, and they are obliged to use peat;( a species of turf) but when the intended canal between <enamex  sw="w38240" name="Large admin unit">Lancashire</enamex> and this place is finished,( which they are afraid will be a tedious tim, from the number of locks it will require) the cheerful hearth will blaze, and they will have, at a moderate rate, that most necessary ingredient in a manufacturing town.</s></p>
<p><s id="s272">The tenter grounds on the sides of the little hills resemble the vineyards in <enamex  sw="w38573" name="Large admin unit">Spain</enamex>; and from having much cloth upon them, I should hope trade flourishes.</s> <s id="s273">I would wish to say something in praise of the town, but it is too ill paved to mind anything but your feet.</s></p>
<p><s id="s274">Opposite the King's Arms, I thought I observed an old man I had once known; on seeing him take a pinch of snuff I was assured of it, which he was always accustomed to do, with an air and twist of the body peculiar to a man of mental consequence, or as we frequently see in a person that has made the grand tour, and takes this manner of letting us know it.</s></p>
<p><s id="s275">He was once a capital watchmaker, and told me with a sigh, he was only now a servant, and that he was obliged to leave his old station, because he could not afford to live in it.</s></p>
<p><s id="s276">After he had recovered himself a little, I fell into enquiries about former days, and the look of sorrow vanished in an instant: I then asked him after a once extraordinary fine green and gold laced coat, I remembered his wearing near five years: when I first saw it, it was" wondrous, nay passing fine," it underwent several degrees of shade, what with the sun, and time, and snuff.</s></p>
<p><s id="s277">Imagine to yourself--( for I like to bring description as faithfully as I can, if it was but to amuse my leisure hours; but I am persuaded if this should fall into hands of any of my old brother soldiers, they will easily recognize poor A--) imagine then a middle-sized man, with a rubicund face and hair bien frizzled; toes turned out, particularly one foot, from the leg, having been three times broke;-- do not forget his green and gold, and, I have to add, a cock and pinched hat equally rusty, with a break in the centre, from the polite bows he always made, and with a pair of brownified silk stockings-- such was once a poor A-- now he has short hair, a plain coat, a figured velvet waistcoat and worsted stockings: but whoever sees him would say," that man has known better days."</s></p>
<p><s id="s278">I was sorry to see him so reduced, for he was always reckoned clever in business, and would most willingly have given a description of the inside of a watch, without expressing the least displeasure at the ignorant or inquisitive.</s> <s id="s279">I have idled away many an hour in his shop, and I would not forget him in his poverty; he acknowledges his imprudencies, and says he shall never leave off his custom of" swigging" away a few" days."</s></p>
<p><s id="s280">He tells a story of his father being so compleat a workman, that he once made a chain of steel so very fine, he had fastened a flea by the leg with it; this story has been offered to Baron Munchausen for his next edition, but I can inform the good folks of <enamex sw="w41167" long="-2.745809060481465" lat="54.32561646560368" type="ppl" gazref="unlock:11185036" name="Kendal" conf="3.093870132">Kendal</enamex>, there are many people who have seen such a thing.</s> <s id="s281">When he first spoke of it, a man left the company and brought in a whetstone, and laid it before him.</s> <s id="s282">A-- had not been long enough amongst them to know the meaning of it, and thought it was for him to swear by:-- he took it up, kissed it, and swore it was true.</s>  <s id="s283">-- This has occasioned a standing jest against him, and I think in the end it will drive him out of town.</s></p>
<p> <s id="s284">It is a custom in the North, when a man tells the greatest lye in company, to reward him with a whetstone, which is called" Lying for a whetstone."</s></p>
<p><s id="s285">I introduce this to rescue him from laughter, as nothing can be more uncomfortable than being the butt of a country town;-- the ignorant may laugh at his follies, but it would be more their credit if they could imitate his ingenuity.</s></p>
<p><s id="s286">When I arrived at they King's Arms the other evenings, I was so displeased with my fatigue I thought it a bad inn: two days has convinced me Mr .s <enamex  sw="w42130" name="Not a placename">Masterson</enamex> is civil and intelligent, and you have every thing in peace and plenty.</s> <s id="s287">The house is a large old straggling one; there are two galleries leading to the bed rooms, and I would advise you to make a cross to know which to go by.</s></p>
<p><s id="s288">Chap.</s> <s id="s289">Vii.</s>
</p>
<p> <s id="s290"><enamex sw="w42379" long="-2.525168987284864" lat="53.90431161336075" type="rgn" gazref="unlock:11182477" name="Ing Wood" conf="1.4">Ing</enamex>'s Chapel-- Industry rewarded-- Benevolence-- A First Sight of the Lakes-- Boats upon <enamex sw="w42480" long="-2.907933804199639" lat="54.37599546506077" type="ppl" gazref="unlock:10204" name="Windermere" conf="2.6">Windermere</enamex>-- <enamex sw="w42496" long="-2.96358681023542" lat="54.4319364520582" type="ppl" gazref="unlock:11061737" name="Ambleside" conf="2.6">Ambleside</enamex>.</s></p>
<p><s id="s291">About six miles from <enamex sw="w42528" long="-2.745809060481465" lat="54.32561646560368" type="ppl" gazref="unlock:11185036" name="Kendal" conf="3.093870132">Kendal</enamex>, we stopped to see <enamex sw="w42554" long="-2.525168987284864" lat="53.90431161336075" type="rgn" gazref="unlock:11182477" name="Ing Wood" conf="1.4">Ing</enamex>'s chapel, rebuilt by a Mr. Mateman, who was born in the parish, of poor parentage; he went through the progressive success of industry, and was entrusted by his masters in <enamex sw="w42730" long="-0.1193526387214661" lat="51.47267150878906" type="ppla" gazref="unlock:14132302" name="London" conf="2.74208267">London</enamex> to transact their business at Leghorn: fortune befriended him, and he amassed immense riches, and he had so just a regard for his native place, he remitted money to repair the chapel, at the same time sending most beautiful marble to inlay the flooring, which is elegantly finished, the steps only leading to the altar being of stone: the seats are uniform and of a commodious size.</s></p>
<p><s id="s292">He not only gave this tribute to the church, but left on thousand pounds to the poor: he lived not to return home, and his executors had the finishing of it, which is expressed on a stone upon the steeple.</s></p>
<p><s id="s293">It is said the little of his property remitted to <enamex  sw="w43376" name="Large admin unit">England</enamex>, was all that was saved to his family, and whether by losses or extravagance, the remainder was dispersed, report disagrees; I cannot, from what I heard, speak with confidence upon the subject; I only wish to do honour to the well-bestowed munificence of his grateful man, and say to the rich, most humbly quoting the language of our Saviour," Go Thou And Do Likewise."</s></p>
<p><s id="s294">I had not retained Mr. Bateman and his chapel long in my mind, before we saw a silver line stealing down a steep mountain right a head of us: we supposed it occasioned by yesterday's rain, and while I was straining my eyes to look at it, the left corner caught a first sight of <enamex sw="w44032" long="-2.907933804199639" lat="54.37599546506077" type="ppl" gazref="unlock:10204" name="Windermere" conf="2.6">Windermere</enamex>: here I could not help dwelling, or rather I wished to dwell, for I called to the postilion not to go on so fast, without perceiving we were descending a steep hill:-- we again lost the lake, but the next rising presented us the rivulet and <enamex sw="w44286" long="-2.907933804199639" lat="54.37599546506077" type="ppl" gazref="unlock:10204" name="Windermere" conf="2.6">Windermere</enamex>, and I did not omit paying a visual attention to the little stranger, which I knew in one minute I was to lose; her extensive neighbour was boldly to the left of us, and, exclusive of the islands, and mountains, and woody borders, half a dozen baots were sailing under a fresh westerly breeze.</s></p>
<p><s id="s295">As you enter <enamex sw="w44604" long="-2.96358681023542" lat="54.4319364520582" type="ppl" gazref="unlock:11061737" name="Ambleside" conf="2.6">Ambleside</enamex>, there are some of the loftiest pines I ever saw, taller, I dare say, than any to the southward of them.</s> <s id="s296">Though the pine is a melancholy tree, it is here seen amongst such cheeful verdure, it is worth admiring as a contrasting shade.</s></p>
<p><s id="s297">Chap.</s> <s id="s298">Viii.</s>
</p>
<p><s id="s299">A kind of apology for myself-- <enamex sw="w44895" long="-2.98206973035289" lat="54.44823197501312" type="ppl" gazref="unlock:15013" name="Rydal" conf="2.6">Rydal</enamex> <enamex sw="w44901" long="-85.6422025" lat="35.9047873" type="other" gazref="unlock:7408922" name="Waterfalls Hollow" conf="0.7175190099">Waterfalls</enamex>-- <enamex sw="w44917" long="-2.999" lat="54.4472" type="manual update" gazref="Geoname_ID_7288050" name="Rydal Water" conf="99992">Rydal Lake</enamex>-- Ampitheatre around it-- <enamex sw="w44960" long="-3.020927713122514" lat="54.46105068867795" type="ppl" gazref="unlock:31171" name="Grasmere" conf="2.6">Grasmere</enamex>-- A Country Ale House-- Went upon the Lake-- An attempt at description-- A Prayer for the Inhabitants-- Crooked Chimney an eye Sore.</s></p>
<p><s id="s300">After dinner a most excellent trout we commence our ramble.</s></p>
<p><s id="s301">I take an opportunity of mentioning, the person out of friendship for whom I take this journey, is the sole director of it.</s> <s id="s302">I follow no written guide, lest I should enter too much into other people's ideas, and not give a native scope to my own: I shall do the best I can, frequently writing upon the spot from whence the object strikes me, which may occasion both of the present and the preter perfect tenses in the same chapters: I do not know how to avoid incommoding my readers with tautology, but I hope they will follow me with more good nature than criticism; yet I have that attachment for truth, I would rather feel the critic's lash, than intentionally misrepresent.</s></p>
<p><s id="s303">Our first walk was to <enamex sw="w45876" long="-2.98" lat="54.4483" type="manual update" gazref="Norgate_ID_NY36550632" name="Rydal Hall" conf="99992">Rydal Hall</enamex>; the youngest daughter of the head husbandman waited at the gate to attend company to the cascades; she led us through the woods up a steep causway to the highest water fall, which surprises, by a short turn to the left,( the opening may be two yards and a half wide) and rushes about forty - five yards into a declivity, and then roars down the hill.</s></p>
<p><s id="s304">We descended a hundred yards, and then came suddenly upon another, which did not fall so steep, but was so overcharged with water, it occasioned a thin sheet to spread over an adjoining rock, separated by a sharp point, and seemed to act like a reflecting rainbow to a larger one.</s> <s id="s305">After satisfying the eye, we declined lower than the house, along winding slate walks edged with evergreens, and occasionally a careless labernum; until we came to an old wainscoted room darkened by surrounding shades, which presented a cascade arched by trees, and back grounded by an ancient bridge, with the verdure seen under it:-- At the instant I am writing a man with his hayday dress, with a rake and a stone bottle, is passing over the bridge, the back shade makes his frame and dress so distinct, I shall never forget the figure.</s></p>
<p><s id="s306">We afterwards pursued the <enamex sw="w47086" long="-3.125370693283439" lat="54.60160037173823" type="ppl" gazref="unlock:10824" name="Keswick" conf="2.6">Keswick</enamex> road along the banks of <enamex sw="w47118" long="-2.999" lat="54.4472" type="manual update" gazref="Geoname_ID_7288050" name="Rydal Water" conf="99992">Rydal lake</enamex>, the beautifully mishapen mountains around us formed a grand ampitheatre; some of them were fortified by the Romans, and seem deserving of them in the Augustan grandeur.</s></p>
<p><s id="s307">We ascended the western hill, and had by degrees a complete view of the compact-- The Rural <enamex sw="w47392" long="-3.0252" lat="54.4584" type="manual_update"  gazref="Geoname_ID_2648201" name="Grasmere" conf="99991">Grassmere</enamex>-- we directed our course towards the church at the top of the lake, where we were told a man of the name of Robert <enamex sw="w47518" long="-1.579210502385161" lat="54.61048074701741" type="ppl" gazref="unlock:11433" name="Newton Aycliffe" conf="1.548059247">Newton</enamex> kept a public house, and that he was an intelligent man: on seeing near the church a sign post we concluded it to be the place:-- we were amusing ourselves with the neat rusticity around us, when the landlady came in and said her husband was amongst his hay: she observed him upon a style and called to him," Robert, tha man cum in.</s> <s id="s308">"</s></p>
<p><s id="s309">He told us he was going to take up his floats in <enamex sw="w47913" long="-3.0252" lat="54.4584" type="manual_update"  gazref="Geoname_ID_2648201" name="Grasmere" conf="99991">Grassmere</enamex>, and showed us a pike of four pounds he had caught in the morning: this was an opportunity we could not omit, and we proposed going with him.</s></p>
<p><s id="s310">But I must first tell you this public house was not distinguished by prints expressing rules for drinking, but by" King Charles's good rule:-- a picture of the pursuit under the royal oak, and a large one explaining the twelve months, with instructive verses under each of then; behind his cottage he had damned in a small stream, and which served as a receptacle for trout, pike, and perch, to be ready whenever he wanted them.</s></p>
<p><s id="s311">An old man upwards of eighty assisted in rowing, and upon our not immediately finding some of the floats, he said" I' me keeping a shairp eye after them:" we did not take any fish, and Robert seemed more disappointed on our account than his own.</s></p>
<p><s id="s312">These floats are shaped like bar shot, or what may be more generally understood like dumb bells; the line is rolled round the bar, and although it may be entangled amidst the weeds, there is no danger of losing it, even if they leave them out all night, for theft is a phaenomenon in this valley.</s> <s id="s313">But I was so much engaged with all around me I did not care about fish.</s></p>
<p><s id="s314"><enamex sw="w49110" long="-3.020927713122514" lat="54.46105068867795" type="ppl" gazref="unlock:31171" name="Grasmere" conf="2.6">Grasmere</enamex> is named from a green rump-shaped island, on which there are many sheep, an out house for shelter, and occasionally a couple of crows: this verdant spot is four acres and a half in circumference, with a low shelter of trees to the south-west.</s></p>
<p><s id="s315">The distance between <enamex sw="w49383" long="-3.01138127729091" lat="54.49446509482051" type="mtn" gazref="unlock:11279836" name="Seat Sandal" conf="2.4">Seat Sandal</enamex> and the opposite mountain exhibits a grand canopy; in the valley, or as it is here called, the <enamex sw="w49490" long="-3.509099217811214" lat="55.01735755306138" type="water" gazref="unlock:8782440" name="Black Grain" conf="2.315240902">Grain</enamex>, the road to <enamex sw="w49509" long="-3.125370693283439" lat="54.60160037173823" type="ppl" gazref="unlock:10824" name="Keswick" conf="2.6">Keswick</enamex> runs: these mountains are so much alike, it may not be improper to call the one brother, and the other the sister, as in the proportion of my mind, they are similar to that of male and female:-- this space is rendered more solemn by dark clouds tumbling into the valley; yet the sun piercing over them shows a distant Alp tinged with watery beauty.</s></p>
<p> <s id="s316">From the sandy front.</s></p>
<p> <s id="s317"><enamex sw="w49892" long="-3.057695522673377" lat="54.49406878163224" type="mtn" gazref="unlock:11291661" name="Steel Fell" conf="2.4">Steel Fell</enamex>.</s></p>
<p><s id="s318">On approaching the Eastern entrance we observe two farm houses, which for three months never feel the sun: the steeple, and what I can see of the church, embosomed in trees, are delightfully picturesque.</s>  <s id="s319">---- May the God of Heaven bless the inhabitants that perform their prayers on its rough oak benches!</s></p>
<p><s id="s320">To the right they have been cutting down some valuable underwood, which rather hurts the look of the tout ensemble: but certainly the husbandman ought to reap the fruits of his labour.</s></p>
<p><s id="s321">Scotch cattle are feeding amidst the woods, and sheep are beautifully dotted upon the hill, at the foot of which we are going to land: this is common land, and is so different from the others, there is not an enclosing wall or a tree to be seen.</s> <s id="s322">- Our guide left us, and it was with diffidence he accepted a trifle.</s></p>
<p><s id="s323">We have agreed to dine at his house on Sunday, and he is afterwards to go with us to the summit of <enamex sw="w50814" long="-3.041800543566656" lat="54.47622985854962" type="mtn" gazref="unlock:11169680" name="Helm Crag" conf="2.4">Helm Crag</enamex>, a steep hill that apparently over-hangs the <enamex sw="w50869" long="-3.125370693283439" lat="54.60160037173823" type="ppl" gazref="unlock:10824" name="Keswick" conf="2.6">Keswick</enamex> road.</s></p>
<p><s id="s324"><enamex sw="w50883" long="-3.0252" lat="54.4584" type="manual_update"  gazref="Geoname_ID_2648201" name="Grasmere" conf="99991">Grassmere</enamex> is a handsome sloping brook to <enamex sw="w50924" long="-2.98206973035289" lat="54.44823197501312" type="ppl" gazref="unlock:15013" name="Rydal" conf="2.6">Rydal</enamex>, and in the separation becomes the Rathay: we occasionally stopped on the soft land on its margin, and took a view of the whole.</s>  <s id="s325">-- I will endeavour to give a description.</s></p>
<p><s id="s326">The formidable heavens to the west set off the wild grandeur of the mountains, and over our head they are as serene, as the valley they adorn: to the north a large table hill, with a thick mist dashing over it: the south is distinguished by a golde appearance from the sun's tinging the clouds, and shows some straggling trees so distinctly, we can delineate the separation of leaves.</s></p>
<p><s id="s327">If sights like these cannot fill the mind with reverence, it must be undeserving of enjoying them!</s></p>
<p><s id="s328">We returned by a good foot path, and we were glad to find the landlord had changed our room for one with a different aspect: there is a crooked chimney right before the other, so obstructs a sight of <enamex sw="w51788" long="-2.907933804199639" lat="54.37599546506077" type="ppl" gazref="unlock:10204" name="Windermere" conf="2.6">Windermere</enamex>, as to take away the pleasure of it.</s></p>
<p><s id="s329">Chap.</s> <s id="s330">Ix.</s> <s id="s331"><enamex sw="w51846" long="-2.907933804199639" lat="54.37599546506077" type="ppl" gazref="unlock:10204" name="Windermere" conf="2.6">Windermere</enamex>.</s>
</p>
<p> <s id="s332">Too much Description-- Thompson's Island.</s></p>
<p><s id="s333">At the head of this Queen of the Lakes are some neat houses that cannot be exceeded for freshness of air and sweetness of prospect; we were apprehensive of the day as we were attended to the <enamex  sw="w52096" name="Large admin unit">Lancashire side</enamex> of the lake with a mizzling rain; but if you please you may mark the progress.</s></p>
<p> <s id="s334"><enamex sw="w52192" long="-2.907933804199639" lat="54.37599546506077" type="ppl" gazref="unlock:10204" name="Windermere" conf="2.6">Windermere</enamex> is the largest of the lakes.</s></p>
<p><s id="s335">The sun pierces upon the <enamex sw="w52257" long="-2.986005869" lat="54.47323305" type="manual update" gazref="ZZSH00133" name="Rydal Fell" conf="99992">Rydal mountains</enamex> that back ground the head of the lake, showing them in just light and shade.</s>  <s id="s336">-- <enamex sw="w52355" long="-2.98" lat="54.4483" type="manual update" gazref="Norgate_ID_NY36550632" name="Rydal Hall" conf="99992">Rydal Hall</enamex> appears about the center, commanding a most delightful view, and in return is equally worthy of notice: when I saw it yesterday the modernizing alteration took from the pleasure I should have had, could I have seen it in its ancient form, but the distance we are now from it takes away the objection.</s></p>
<p><s id="s337">Landale Pikes hold their ragged heads in shapeless horror, as if they had been thrown out by a most violent throe of nature.</s>  <s id="s338">-- <enamex sw="w52797" long="-3.000560623790019" lat="54.24386305141168" type="ppl" gazref="unlock:16529" name="Low Wood" conf="2.6">Low Wood</enamex> is thickly wooded, and shows the snug roof of a farm house about one third of the way up it: at the foot is <enamex sw="w52914" long="-3.000560623790019" lat="54.24386305141168" type="ppl" gazref="unlock:16529" name="Low Wood" conf="2.6">Low Wood</enamex> Inn, a neat object, with about fifty scattered fields near it:-- <enamex sw="w52990" long="-2.5" lat="54.35" type="other" gazref="unlock:4578383" name="The Calf" conf="2">Calf</enamex> <enamex sw="w52995" long="-1.961317905351415" lat="54.57958006966771" type="other" gazref="unlock:11240827" name="Parrick Ho" conf="0.897636359">Parrick</enamex> Crag is opposite the inn, and we are close rounding into its bay: this point takes away many old views, and opens upon new ones.</s>  <s id="s339">-- About two miles to the left is Brad Risen, a large field full of sheep, and surrounded by wood; about a mile further a light green field, shaped like a tumulus, skirts into the view.</s>  <s id="s340">-- The rain has ceased, columns are flying about, and the sun has dried the paper which my pencil is faithfully writing upon.</s></p>
<p><s id="s341">We open the little village of <enamex sw="w53478" long="-2.915738676011205" lat="54.36040070757029" type="ppl" gazref="unlock:11084353" name="Bowness-On-Windermere" conf="2.6">Bowness</enamex>, and a squadron of seven cutters, with pennants and colours flying, under different tacks: the farm house I before remarked is called <enamex sw="w53620" long="-2.947756960016898" lat="54.41408472305542" type="other" gazref="unlock:11131031" name="Dove Nest" conf="2">Dove Nest</enamex>, and is become a well-placed object: the fields in front have a regular slope, and are ornamented with the exhilarating sight of spreading out their hay, which gives us hopes we shall have a fine day, as they know more of this climate than we do.</s></p>
<p><s id="s342">From <enamex sw="w53882" long="-0.7500418347804688" lat="51.63318409360285" type="ppl" gazref="unlock:11172633" name="High Wycombe" conf="1.6">High</enamex> <enamex sw="w53887" long="-76.2768748" lat="43.8345077" type="other" gazref="unlock:7873861" name="Ray Bay" conf="0.6507460676">Ray Bay</enamex>, <enamex sw="w53896" long="-3.118464887566315" lat="54.45756762847756" type="mtn" gazref="unlock:11191353" name="Langdale Pikes" conf="2.4">Langdale Pikes</enamex> appear over a wooded hill: we have like-wise the <enamex sw="w53960" long="-3.12208" lat="54.37042" type="other" gazref="unlock:4565407" name="Old Man of Coniston" conf="2">Old Man</enamex> and Wedderlamb, which become interesting, though they are barren; for the lesser hills, which compose the fore part, are of variegated verdure.</s> <s id="s343">At the western extremity of Wedderlamb it is raining as hard as it can pour, and on the adjacent hills the sun and clouds are playing fantastically-- we are opening <enamex sw="w54280" long="-2.928529867" lat="54.38830822" type="manual update" gazref="ZZSH00125" name="Calgarth Park" conf="99992">Colgarth</enamex>-- but I am taken off by one of <enamex sw="w54323" long="-2.872764887218234" lat="55.23254273841246" type="other" gazref="unlock:11245240" name="Pikes, The" conf="0.8936965006">the Pikes</enamex>, which, as the boat rows slowly on, resembles a Cardinal's cap, showing itself above the centre of a very green hill.</s></p>
<p><s id="s344">The squadron is manoeuvering with seeming nautical skill, having no lee shore to be afraid of, which was so great a bugbear this day fourteen years.</s>  <s id="s345">-- Colours are hoisted upon <enamex sw="w54630" long="-2.931127009816036" lat="54.36028298374819" type="rgn" gazref="unlock:11074690" name="Belle Isle" conf="2.4">Belle</enamex> <enamex sw="w54636" long="-122.2329168" lat="48.0387071" type="other" gazref="unlock:8547293" name="Priest Point Grange" conf="0.6184097782">Grange Point</enamex> to inform the people the master is on the island.</s> <s id="s346">This deep part of the lake is famous for char, which are usually taken between November and April.</s> <s id="s347">Though covered from the breeze, we are often refreshed with the fragrance of new-mown hay.</s> <s id="s348">The boats are near Dove Farm, and seem appendages to the meadows: much as I have been accustomed to the sea I cannot say I ever saw a prettier water-sight before.</s> <s id="s349">We went on shore at the Flag Staff, and had a full command of <enamex sw="w55114" long="-2.931127009816036" lat="54.36028298374819" type="rgn" gazref="unlock:11074690" name="Belle Isle" conf="2.4">Belle Isle</enamex>, which is about the middle of the lake, and is nearly two miles in circumference: we see <enamex sw="w55214" long="-2.915738676011205" lat="54.36040070757029" type="ppl" gazref="unlock:11084353" name="Bowness-On-Windermere" conf="2.6">Bowness</enamex> church, and a chain of low hills partly covered with heath, apparently extending to the extremity of the lake, and occasionally interspersed with small fields and some wood.</s></p>
<p><s id="s350">I do not doubt but <enamex sw="w55415" long="-2.928529867" lat="54.38830822" type="manual update" gazref="ZZSH00125" name="Calgarth Park" conf="99992">Colgarth</enamex> is large and comfortable within, but I think the windows have a pigeon-hole look.</s> <s id="s351">About one we landed upon Thompson's Island, from which we have a fair sight of Belle Isle House and pleasure grounds, appearing to be laid out in much modern taste: this island is near two others, called Lilies of the Valley, which are deserving of their name, for they are beautiful little spots.</s></p>
<p><s id="s352">After a plentiful meal near some wild myrtle, and amidst ash and other trees, I penetrated through the wood, and am seated unseen, to admire <enamex sw="w55945" long="-2.980504499805622" lat="54.49471944879589" type="other" gazref="unlock:11275809" name="Rydal Head" conf="2">Rydal Head</enamex> and the course we have taken: the wind has drove the clouds before the sun, and left an azure over the lake which has change the dun colour of it to a reflected blue, and makes the whole placidly new: the flag staff divides the vale of <enamex sw="w56192" long="-2.98206973035289" lat="54.44823197501312" type="ppl" gazref="unlock:15013" name="Rydal" conf="2.6">Rydal</enamex>, and I have the squadron on a returning tack rounding the point.</s> <s id="s353">Colgarth House is a pleasant white object, without any other to be seen:-- a sweeping mountain over <enamex sw="w56365" long="-2.9169" lat="54.4143" type="manual update" gazref="unlock:11306427" name="Troutbeck" conf="99992">Troutbeck Dale</enamex> forms a sullen cresent with a camel's protuberance on its back, and which makes one of those deformed reflections upon another mountain, that we may call disgustful, though but a shadow:-- a musket is just fired near some reverberating hills;-- nor must I pass unnoticed the bleating of sheep on the Lower Fells, the rustling of the wind, and the poppling of the lake; they are distinctly heard, because undisturbed by other sounds, and join the eye to fill up the pleasures of the mind.</s></p>
<p><s id="s354">I returned to my friend on the dinner side of the island; the view is confined and <enamex sw="w56955" long="-2.931127009816036" lat="54.36028298374819" type="rgn" gazref="unlock:11074690" name="Belle Isle" conf="2.4">Belle Isle</enamex> territory is a studied pleasure ground, with many sheep grazing to a bounding shrubbery.</s></p>
<p><s id="s355">Houses in situations like these become secondary objects, and can only be noted as spots in the wild grandeur around them, and in proportion to the benevolence of the owner-- a virtue not wanting here-- <enamex sw="w57264" name="Sewry">Sewry</enamex> Heights have a cool look, and must be very valuable every fourteen years, when the wood is cut down for charcoal.</s> <s id="s356">We proceeded to a point where there is a ferry to convey carriages that pase between Hawkeshead and <enamex sw="w57484" long="-2.745809060481465" lat="54.32561646560368" type="ppl" gazref="unlock:11185036" name="Kendal" conf="3.093870132">Kendal</enamex>: after walking up a small hill, we saw the outlet of <enamex sw="w57544" long="-2.907933804199639" lat="54.37599546506077" type="ppl" gazref="unlock:10204" name="Windermere" conf="2.6">Windermere</enamex>, then crossed to the opposite ferry in front of Bell Isle, and saw eight cutters and a yatch at anchor.</s></p>
<p><s id="s357">The house is shaped like a low watch tower, seemingly built to catch every object about the lake: the portico gives it a handsome front; but I want taste to admire any other part of it; and even the pillars, when we had a side view in the shade of evening, seemed as if they were walking away with the house to <enamex sw="w57970" long="-2.915738676011205" lat="54.36040070757029" type="ppl" gazref="unlock:11084353" name="Bowness-On-Windermere" conf="2.6">Bowness</enamex>.</s></p>
<p><s id="s358">Chap.</s> <s id="s359">X. <enamex sw="w57988" long="-2.907933804199639" lat="54.37599546506077" type="ppl" gazref="unlock:10204" name="Windermere" conf="2.6">Windermere</enamex>.</s>
</p>
<p> <s id="s360"><enamex sw="w58002" long="-2.915738676011205" lat="54.36040070757029" type="ppl" gazref="unlock:11084353" name="Bowness-On-Windermere" conf="2.6">Bowness</enamex>-- An Adder-- Robin Partridge's Finger, and an old Irishwoman's Charms-- Robin angry because I want Faith-- Remnants of <enamex sw="w58141" long="-3.201549006999698" lat="54.13316968437257" type="fac" gazref="unlock:11148990" name="Furness Abbey" conf="2.18993776">Furness Abbey</enamex> Window-- To see <enamex sw="w58174" long="-2.907933804199639" lat="54.37599546506077" type="ppl" gazref="unlock:10204" name="Windermere" conf="2.6">Windermere</enamex> to Advantage.</s></p>
<p><s id="s361">After landing at <enamex sw="w58216" long="-2.915738676011205" lat="54.36040070757029" type="ppl" gazref="unlock:11084353" name="Bowness-On-Windermere" conf="2.6">Bowness</enamex>, I went into a summer house, at the end of a diminutive bowling green, and I will now mention an instance which happened on the opposite ferry, that shows the superstition of the country people.</s></p>
<p><s id="s362">I saw an adder in a wall: the guide's fore finger was last year bitten by one, and which must have been a very venemous hurt: he said--" I should have lost my loife if Ied naw found an Irishmon to lay houd of it and strouk it, and during the time he did it, I fealt no pean."-- I asked him if an Englishman had rubbed it, if he did not think it would have done equally well, or if he was not obliged to his good habit of body for the cure--" not I-- an Englishmon cued naw chearm away the sting"-- and by way of elucidation told a story of" a Feact" that he saw happen when a boy.</s></p>
<p><s id="s363">" An old Irishwoman mead a ring round an adder, and it cued naw geet out of it; hua then repeated some Gibberish, weet her finger wi her spittle, stroaked it cross its back, and it deed."</s></p>
<p><s id="s364">I should have laughed most heartily at honest Robin Partridge, if I had not been convinced he spoke from simplicity of mind; and I think I did rather sink in his good graces by not having any faith in the Hibernian touch.</s>  <s id="s365">-- May not thi man be a relation to the once famous almanach maker?</s></p>
<p><s id="s366">I went up a small hill near the inn, from whence I had a view of the whole of the lake: an indescribable scene was open to me, and I enjoyed it for half an hour.</s></p>
