<?xml version="1.0" encoding="UTF-8"?><document>

<text id="1827_a"><p><s id="s1">The Tourist's And Traveller's Companion To The Lakes Of <enamex  sw="w68" name="Large admin unit">Cumberland</enamex>, <enamex  sw="w80" name="Large admin unit">Westmoreland</enamex>, And <enamex  sw="w98" name="Large admin unit">Lancashire</enamex>, Including A Description Of The Surrounding Scenery.</s> <s id="s2">The Vales, Mountains, adjacent Towns and Villages, Local Peculiarities,&amp; c.</s> <s id="s3">By Charles Cooke.</s> <s id="s4"><enamex sw="w258" long="-0.1193526387214661" lat="51.47267150878906" type="ppla" gazref="unlock:14132302" name="London" conf="2.774094933">London</enamex>: Printed For Sherwood, Jones, And Co <enamex sw="w302" long="-0.0981" lat="51.5147" type="manual_update"  gazref="ZZSH00035" name="Paternoster Row" conf="99991">Paternoster</enamex> Row.</s> <s id="s5">And Sold By All Booksellers.</s>
</p>
<p><s id="s6">D. Sideny&amp; Co.</s> <s id="s7">Printers,</s></p>
<p><s id="s8"><enamex  sw="w375" name="Large admin unit">Northumberland Street</enamex>, <enamex  sw="w398" name="Too ambigious to allocate">Strand</enamex>.</s></p>
<p><s id="s9">Preface.</s></p>
<p><s id="s10">The scenery of the Lakes of <enamex  sw="w443" name="Large admin unit">Cumberland</enamex>&amp; e&amp; c.</s> <s id="s11">being among the principal attractions commanding the attention of tourists and travellers, we have preferred a connected description of the whole to any detached and occasional mention of them, as they occur in the course of the journeys marked out in our Topographical Description.</s></p>
<p><s id="s12">The grandeur of the scenery, unique in its kind, would, undoubt-edly, lose much of its effect intermingled with other subjects, as they occur in the several tours described here.</s> <s id="s13">We have therefore preferred trating this as a separate subjects but at the same time, complete in itself.</s></p>
<p><s id="s14">Various methods have been proposed as the most eligible for viewing these Lakes, but after all that has been said, the tourist is most likely to be determined by his own previous ideas on the subject, or led by local circumstancs to adopt a plan of his own.</s> <s id="s15">In arranging, therefore, our excursions, we have given, as accurately as possible, the distances from place to place, and by breaking our tour into short excursions from the principal places, have, we trust, so dis-posed the whole, that whatever order of visiting the Lakes may be adopted, we may still be a useful guide or companion; connecting the observatons and remarks of the latest travellers and tourists upon this romantic part of the Island, particularly those of that ingenious artist, Mr. William Green, the indefatigable Athour of The Tourist's New Guide,&amp; c.</s></p>
<p><s id="s16">This Guide to the Lakes, it two volumes, has been justly styled by Mr. Wordsworth, A Complete Magazine of minute and accurate information of this kind, giving the names of Mountains, Streams,&amp; c.</s></p>
<p><s id="s17">The Editor.</s></p>
<p><s id="s18">Introduction</s></p>
<p><s id="s19">Opinions vary as to the most eligible point from which strangers should act out, to view the Lakes to the best advantage.</s> <s id="s20">On this particular, a respectable writer, who has been much followed, has observed," The course of visiting the Lakes fom <enamex sw="w2324" long="-2.75205279814005" lat="54.66713013349954" type="ppl" gazref="unlock:11243307" name="Penrith" conf="2.6">Penrith</enamex> is by <enamex sw="w2338" long="-3.136102972217173" lat="54.88630638486671" type="ppl" gazref="unlock:23342" name="Little Bampton" conf="2.6">Bampton</enamex> to Haweswater, and from thence to <enamex sw="w2380" long="-2.89078" lat="54.57564" type="manual update" gazref="ZZSH00028" name="Ullswater" conf="99992">Uls Water</enamex> and return to <enamex sw="w2404" long="-2.75205279814005" lat="54.66713013349954" type="ppl" gazref="unlock:11243307" name="Penrith" conf="2.6">Penrith</enamex>.</s> <s id="s21">Next set out for keswick and the environs, set out for Am Bleside, sixteen miles of excellent mountain Road.</s> <s id="s22">From <enamex sw="w2527" long="-1.566549922880231" lat="55.3247627362065" type="ppl" gazref="unlock:11061733" name="Amble" conf="1.401344742">Amble</enamex> Side, proceed along the side of <enamex sw="w2565" long="-2.9344" lat="54.373" type="manual update" gazref="Geoname_ID_2633852" name="Lake Windermere" conf="99992">Windermere Water</enamex>, six miles to <enamex sw="w2596" long="-3.20953099163933" lat="54.95240084458308" type="ppl" gazref="unlock:39176" name="Bowness-On- Solway" conf="2.6">Bowness</enamex>, and, having explored this Lake, either return to <enamex sw="w2654" long="-2.959272920560253" lat="54.43199742280473" type="ppl" gazref="unlock:11255" name="Ambleside" conf="2.6">Ambleside</enamex> and from thence to <enamex sw="w2683" long="-3.023901654228874" lat="54.37750890240144" type="ppl" gazref="unlock:11167814" name="Hawkshead Hill" conf="2.6">Hawkshead</enamex>, five miles, or cross <enamex sw="w2715" long="-2.9344" lat="54.373" type="manual update" gazref="Geoname_ID_2633852" name="Lake Windermere" conf="99992">Windermere water</enamex> at the Horse Ferry, to <enamex sw="w2755" long="-3.023901654228874" lat="54.37750890240144" type="ppl" gazref="unlock:11167814" name="Hawkshead Hill" conf="2.6">Hawkshead</enamex>, four miles.</s> <s id="s23">The road part of the way, is along the beautiful banks of <enamex sw="w2836" long="-2.977291334332336" lat="54.3599180438576" type="water" gazref="unlock:11140740" name="Esthwaite Water" conf="2.4">Esthwaite Water</enamex>.</s> <s id="s24">From <enamex sw="w2858" long="-3.023901654228874" lat="54.37750890240144" type="ppl" gazref="unlock:11167814" name="Hawkshead Hill" conf="2.6">Hawkshead</enamex>, the road is along the skirts of the <enamex sw="w2905" long="-3.205728845294711" lat="54.27695240936971" type="ppl" gazref="unlock:11089765" name="Broughton in Furness" conf="2.6">Furness</enamex> <enamex sw="w2913" long="-3.3297" lat="54.3116" type="manual update" gazref="unlock:11116309" name="Coniston Fells" conf="99992">Appennines</enamex> to the head of <enamex sw="w2939" long="-3.069150080092114" lat="54.34116196598502" type="water" gazref="unlock:11115206" name="Coniston Water" conf="2.4">Coniston Water</enamex>, three miles good road.</s> <s id="s25">This Lake stretches from the feet of <enamex sw="w3015" long="-3.085714984658552" lat="54.38595749576114" type="other" gazref="unlock:11115202" name="Coniston Fells" conf="2">Coniston Fells</enamex>, to the south, six miles.</s> <s id="s26">The road on the eastern side along its banks to <enamex sw="w3104" long="-3.082642082112015" lat="54.26913154387659" type="ppl" gazref="unlock:11209126" name="Lowick Bridge" conf="2.6">Lowick Bridge</enamex>; from thence to <enamex sw="w3134" long="-3.060088511" lat="54.24063568" type="manual_update"  gazref="ZZSH00218" name="Penny Bridge" conf="99991">Penny Bridge</enamex>, or by <enamex sw="w3154" long="-3.097756800354311" lat="54.26000603889175" type="fac" gazref="unlock:11209129" name="Lowick Hall" conf="2.2">Lowick Hall</enamex>, eight miles.</s> <s id="s27">From <enamex sw="w3185" long="-2.628155075629303" lat="51.60218710410136" type="other" gazref="unlock:11159328" name="Great Ulverstone" conf="0.9817574702">Ulverstone</enamex>, by <enamex sw="w3200" long="-3.177980552513582" lat="54.15480048261493" type="ppl" gazref="unlock:11514" name="Dalton-In-Furness" conf="2.6">Dalton</enamex>, to the ruins of <enamex sw="w3224" long="-3.201549006999698" lat="54.13316968437257" type="fac" gazref="unlock:11148990" name="Furness Abbey" conf="2.2">Furness Abbey</enamex>, six miles.</s> <s id="s28">Return to <enamex sw="w3260" long="-3.081393270948825" lat="54.19093311473023" type="ppl" gazref="unlock:10880" name="Ulverston" conf="2.6">Ulverston</enamex>, from thence to <enamex sw="w3286" long="-2.745809060481465" lat="54.32561646560368" type="ppl" gazref="unlock:11185036" name="Kendal" conf="3.093870132">Kendal</enamex>, twenty - one miles, or to <enamex sw="w3318" long="-2.801902525771824" lat="54.04660667916625" type="ppl" gazref="unlock:11190914" name="Lancaster" conf="3.134718443">Lancaster</enamex>, over the sands, twenty miles.</s></p>
<p><s id="s29">This order for making the tour of the Lakes, is the most conve-nient for company coming from the north, or over Stainmoor; - but for those who come by <enamex sw="w3508" long="-2.801902525771824" lat="54.04660667916625" type="ppl" gazref="unlock:11190914" name="Lancaster" conf="3.134718443">Lancaster</enamex>, it will be every way more convenient to commence their visit to the Lakes with <enamex sw="w3598" long="-3.071790052749298" lat="54.36868891187336" type="ppl" gazref="unlock:25643" name="Coniston" conf="3.1">Coniston</enamex> Water. - By this course the Lakes present themselves in an order more agreeable to the eye and grateful to the imagination.</s> <s id="s30">The change of scenery is then from the pleasing to the surprising: from the delicate touches of <enamex  sw="w3826" name="Not a placename">Claude</enamex>, verified on the <enamex sw="w3850" long="-3.0765" lat="54.3361" type="manual_update"  gazref="Geoname_ID_2653454" name="Coniston Water" conf="99991">Coniston Lake</enamex>, to the noble scenes of Pousein exhibited in <enamex sw="w3909" long="-2.907933804199639" lat="54.37599546506077" type="ppl" gazref="unlock:10204" name="Windermere" conf="2.6">Windermere</enamex>; and from these to the stupendous romantic ideas of <enamex  sw="w3972" name="Not a placename">Salvator</enamex> <enamex sw="w3981" long="-74.7223827" lat="40.3673286" type="other" gazref="unlock:7843883" name="Mount Rose" conf="0.7950645157">Rose</enamex>, realized on the Lake of <enamex sw="w4011" long="-3.152850781702139" lat="54.58308385381825" type="water" gazref="unlock:11128993" name="Derwent Water" conf="2.4">Derwent Water</enamex>.</s></p>
<p><s id="s31">We would therefore take up the tourist at <enamex sw="w4068" long="-2.801902525771824" lat="54.04660667916625" type="ppl" gazref="unlock:11190914" name="Lancaster" conf="3.134718443">Lancaster</enamex>, and attend him to all the Lakes, poiting out the permanent features of each scene, the vales, the delts, the groves, the hanging woods, the sea-tered cots, the deep mountains, the impending cliff, the broken ridge, the tarns, the streams,&amp; c.</s></p>
<p><s id="s32">Such as visit the Lakes from the south, and are limited to time, generally make to <enamex sw="w4405" long="-2.959272920560253" lat="54.43199742280473" type="ppl" gazref="unlock:11255" name="Ambleside" conf="2.6">Ambleside</enamex>, as a primary station; others, not preferring the beauties of this place, post on to <enamex sw="w4500" long="-3.137880601359804" lat="54.60120234465001" type="ppl" gazref="unlock:11185565" name="Keswick" conf="2.6">Keswick</enamex>, under the idea that all the charms of the country are concentrated in <enamex sw="w4579" long="-3.152840038750234" lat="54.52319628836889" type="civil" gazref="unlock:13403088" name="Borrowdale CP" conf="2.4">Borrowdale</enamex> and <enamex sw="w4594" long="-3.351799651190464" lat="54.57703262453121" type="water" gazref="unlock:8772717" name="River Derwent" conf="2.4">Derwent</enamex> Water.</s> <s id="s33">A short time, in dry weather, will do much.</s> <s id="s34">Mr. Green honestly declares in favour of <enamex sw="w4694" long="-2.959272920560253" lat="54.43199742280473" type="ppl" gazref="unlock:11255" name="Ambleside" conf="2.6">Ambleside</enamex>, but not to the total exclusion of <enamex sw="w4739" long="-3.137880601359804" lat="54.60120234465001" type="ppl" gazref="unlock:11185565" name="Keswick" conf="2.6">Keswick</enamex> and <enamex sw="w4751" long="-3.351799651190464" lat="54.57703262453121" type="water" gazref="unlock:8772717" name="River Derwent" conf="2.4">Derwent</enamex> Water, where one or two days might produce an agreeable variety. - On the con-traty, visitors from the north or east, might spend four days about <enamex sw="w4904" long="-3.152850781702139" lat="54.58308385381825" type="water" gazref="unlock:11128993" name="Derwent Water" conf="2.4">Derwent Water</enamex>, and the neighbourhood, and two in a tour by <enamex sw="w4963" long="-2.936655869166173" lat="54.60292651226363" type="ppl" gazref="unlock:11214667" name="Matterdale End" conf="2.6">Matterdale</enamex> to <enamex sw="w4977" long="-2.89078" lat="54.57564" type="manual update" gazref="ZZSH00028" name="Ullswater" conf="99992">Uls Water</enamex>, returning by way of <enamex sw="w5008" long="-2.959272920560253" lat="54.43199742280473" type="ppl" gazref="unlock:11255" name="Ambleside" conf="2.6">Ambleside</enamex> to <enamex sw="w5021" long="-3.137880601359804" lat="54.60120234465001" type="ppl" gazref="unlock:11185565" name="Keswick" conf="2.6">Keswick</enamex>.</s></p>
<p><s id="s35">To form a proper idea of the local scenery of the Lakes, Mr. Wordsworth says," I know not how to give the reader a distinct image of these more readily, than by requesting him to place him-self with mo in imagination upon some given point; let it be the top of Great Cavel, or <enamex sw="w5307" long="-3.21333" lat="54.45583" type="manual_update"  gazref="ZZSH00026" name="Scafell" conf="99991">Scaw Fell</enamex>; or rather let us suppose our sta-tion to be a cloud, hanging midway between these two mountains, at no more than half a mile's distance from the summit of each, and not many yards above their highest elevation; we shall then see stretched at our feet, a number of valleys, not fewer than eight, diverging from the point on which we are supposed to stand, like spokes from the nave of a wheel.</s> <s id="s36">First we note, lying to the south east, the vale of <enamex sw="w5763" long="-3.051865815747152" lat="54.42093505077031" type="ppl" gazref="unlock:34442" name="Little Langdale" conf="2.6">Langdale</enamex>, which will conduct the eye to the long Lake of <enamex sw="w5820" long="-2.907933804199639" lat="54.37599546506077" type="ppl" gazref="unlock:10204" name="Windermere" conf="2.6">Windermere</enamex>, stretched nearly to the sands of the vast Bay in a direction from the south-east, towards the south, and we shall fix our eyes upon the vale of <enamex sw="w5976" long="-2.064538418422706" lat="51.28910912802838" type="ppl" gazref="unlock:11117378" name="Coulston" conf="1.471193121">Coulston</enamex>, running up likewise from the sea, but not as the other vallyes do, to the nave of the wheel and therefore it may not be unaptly represented as a broken spoke sticking in the rim.</s> <s id="s37">Looking again, with an inclination towars the west, immediately at our feet lies the vale of <enamex sw="w6258" long="-3.236709373359921" lat="54.28562759750553" type="ppl" gazref="unlock:11133272" name="Duddon Bridge" conf="2.6">Duddon</enamex>, in which is no Lake, but a winding stream among fields, rocks, and mountains, and terminating gits course in the sands of <enamex sw="w6388" long="-3.236709373359921" lat="54.28562759750553" type="ppl" gazref="unlock:11133272" name="Duddon Bridge" conf="2.6">Duddon</enamex>.</s> <s id="s38">The fourth vale, that of the <enamex sw="w6425" long="-3.30009716472156" lat="54.3940525814659" type="water" gazref="unlock:8771979" name="River Esk" conf="2.4">Esk</enamex>, is of the same general character as the last, yet beautifully discriminate from it by peculiar features.</s> <s id="s39">Its stream passes under the woody steep upon which stands Mun Caster Castle, the ancient £ eat of the Penningtons, and after forming a short and narrow estuary, enters the sea below the little <enamex sw="w6727" long="-0.1322934205611927" lat="51.54404014997548" type="ppl" gazref="unlock:11097202" name="Camden Town" conf="1.6">Town</enamex> of <enamex sw="w6735" long="-3.406748881310928" lat="54.35437318902203" type="ppl" gazref="unlock:43249" name="Ravenglass" conf="2.6">Ravenglass</enamex>.</s> <s id="s40">Next, almost due west, we should look down into, and along the deep valley of <enamex sw="w6825" long="-3.3488" lat="54.4251" type="manual update" gazref="unlock:31029" name="Wasdale" conf="99992">Wastdale</enamex>, with its little chapel and a few neat dwellings scattered upon a plain of meadow and corn ground, intersected with stone walls, almost imperceptible.</s> <s id="s41">Beyond this fertile little plain, within its bed of steep mountains, lies the long, narrow, stern, and desolate Lake of <enamex sw="w7105" long="-3.3488" lat="54.4251" type="manual update" gazref="unlock:31029" name="Wasdale" conf="99992">Wastdale</enamex>, and beyond this, a dusky tract of level ground conducts the eye to the Irish sea.</s> <s id="s42">The stream, issuing from <enamex sw="w7222" long="-3.287554581645747" lat="54.43790671074923" type="water" gazref="unlock:11314030" name="Wast Water" conf="2.4">Wast Water</enamex>, is called the Irt, and falls into the estuary of the <enamex sw="w7287" long="-3.30009716472156" lat="54.3940525814659" type="water" gazref="unlock:8771979" name="River Esk" conf="2.4">River Esk</enamex>.</s> <s id="s43"><enamex sw="w7298" long="-3.429418179792764" lat="54.52620042627977" type="ppl" gazref="unlock:11140131" name="Ennerdale Bridge" conf="2.6">Ennerdale</enamex> comes next in view, with its Lake of bold and somewhat savage shores.</s> <s id="s44">Its stream, the Ehen or <enamex sw="w7402" long="14.25" lat="37.75" type="other" gazref="unlock:14197610" name="Enna" conf="0.5380162671">Enna</enamex>, flowing through a soft and fertile coun-try, passes the town of <enamex sw="w7472" long="-3.531672049652393" lat="54.48235780155937" type="ppl" gazref="unlock:10053" name="Egremont" conf="2.6">Egremont</enamex>, and the ruins of <enamex sw="w7499" long="-0.690442908632407" lat="51.69548404957566" type="fac" gazref="unlock:11101190" name="Castle, The" conf="1.2">the Castle</enamex>; then seeming to break through the barrier of sand thrown up by the winds on this tempestuous coast, enters the Irish sea.</s> <s id="s45">The vale of <enamex sw="w7645" long="-3.275491839681807" lat="54.54589906722578" type="ppl" gazref="unlock:11094751" name="Buttermere" conf="2.6">Buttermere</enamex>, with the lake and village of <enamex sw="w7686" long="-3.30669123730051" lat="54.55455472767663" type="water" gazref="unlock:11124107" name="Crummock Water" conf="2.4">Crummock Water</enamex> beyond, next present themselves.</s> <s id="s46">we will now follow the main stream, the Cocker, through the fertile and beautiful vale of Lor Ton, till it is lost in the <enamex sw="w7856" long="-3.351799651190464" lat="54.57703262453121" type="water" gazref="unlock:8772717" name="River Derwent" conf="2.4">Derwent</enamex>, below the noble ruins of Cocker Mouth Castle.</s> <s id="s47">Lastly, <enamex sw="w7919" long="-3.152840038750234" lat="54.52319628836889" type="civil" gazref="unlock:13403088" name="Borrowdale CP" conf="2.4">Borrowdale</enamex>, of which the vale of <enamex sw="w7952" long="-3.137880601359804" lat="54.60120234465001" type="ppl" gazref="unlock:11185565" name="Keswick" conf="2.6">Keswick</enamex> is only a continuation, stretching due north, brings us to a point nearly opposite to the vale of <enamex sw="w8058" long="-2.907933804199639" lat="54.37599546506077" type="ppl" gazref="unlock:10204" name="Windermere" conf="2.6">Windermere</enamex>, with which we began.</s> <s id="s48">From this it will appear that the image of a wheel, thus far exact, is little more than one half complete; but the deficiency on the eas-tern side may be supplied by the vales of Wytheburn, <enamex sw="w8281" long="-2.89078" lat="54.57564" type="manual update" gazref="ZZSH00028" name="Ullswater" conf="99992">Uls Water</enamex>, <enamex sw="w8292" long="-2.8025" lat="54.5218" type="manual update" gazref="Geoname_ID_2647299" name="Haweswater" conf="99992">Haws Water</enamex>, <enamex sw="w8304" long="-3.020927713122514" lat="54.46105068867795" type="ppl" gazref="unlock:31171" name="Grasmere" conf="2.6">Grasmere</enamex>, and <enamex sw="w8318" long="-2.98206973035289" lat="54.44823197501312" type="ppl" gazref="unlock:15013" name="Rydal" conf="2.6">Rydal</enamex>: none of these, however, run up to the central point between <enamex sw="w8385" long="-3.21929208" lat="54.48224887" type="manual update" gazref="ZZSH00108" name="Great Gable" conf="99992">Great Gavel</enamex> and Scawfell.</s> <s id="s49">From this, hitherto our central point, if we take a flight not more than three or four miles eastward to the ridge of <enamex sw="w8529" long="-3.043402327204126" lat="54.53913510713601" type="water" gazref="unlock:11169754" name="Helvellyn Gill" conf="2.4">Helvellyn</enamex>, we shall look down upon Wytheburn and <enamex sw="w8578" long="-1.683939854346278" lat="54.49795383225262" type="ppl" gazref="unlock:35385" name="Aldbrough St John" conf="1.6">St. John</enamex>'s Vale, a branch of the vale of <enamex sw="w8619" long="-3.137880601359804" lat="54.60120234465001" type="ppl" gazref="unlock:11185565" name="Keswick" conf="2.6">Keswick</enamex>.</s> <s id="s50">Upon <enamex sw="w8633" long="-2.89078" lat="54.57564" type="manual update" gazref="ZZSH00028" name="Ullswater" conf="99992">Uls Water</enamex>, stretching due east, and not far beyond to the south east,( though from this point not visible) lie the vale and Lake of <enamex sw="w8765" long="-2.8025" lat="54.5218" type="manual update" gazref="Geoname_ID_2647299" name="Haweswater" conf="99992">Haws Water</enamex>, and lastly the vales of <enamex sw="w8801" long="-3.020927713122514" lat="54.46105068867795" type="ppl" gazref="unlock:31171" name="Grasmere" conf="2.6">Grasmere</enamex>, <enamex sw="w8811" long="-2.98206973035289" lat="54.44823197501312" type="ppl" gazref="unlock:15013" name="Rydal" conf="2.6">Rydal</enamex>, and <enamex sw="w8822" long="-2.959272920560253" lat="54.43199742280473" type="ppl" gazref="unlock:11255" name="Ambleside" conf="2.6">Ambleside</enamex>, bring you back to <enamex sw="w8851" long="-2.907933804199639" lat="54.37599546506077" type="ppl" gazref="unlock:10204" name="Windermere" conf="2.6">Windermere</enamex>; thus completing, though on the eastern side, in a somewhat irregular manner, the represetnative figure of the wheel."</s></p>
<p><s id="s51">Mr. Wordsworth has remarked," that from amenity end beauty, the transition to sublimity is easy and favourable; but the reverse is not so; for after the faculties have been elevated, they are indis-posed to humbler incitement.</s> <s id="s52">The only instances to which these observations do not apply, are <enamex sw="w9273" long="-3.152850781702139" lat="54.58308385381825" type="water" gazref="unlock:11128993" name="Derwent Water" conf="2.4">Derwent Water</enamex>, and Lowes Water - <enamex sw="w9305" long="-3.351799651190464" lat="54.57703262453121" type="water" gazref="unlock:8772717" name="River Derwent" conf="2.4">Derwent</enamex> is distinguished from all other Lakes, by being surrounded by sublimity: the fantastic mountains of <enamex sw="w9413" long="-3.152840038750234" lat="54.52319628836889" type="civil" gazref="unlock:13403088" name="Borrowdale CP" conf="2.4">Borrowdale</enamex> to the south; the solitary majesty of <enamex sw="w9462" long="-3.123888158550623" lat="54.65526311800171" type="rgn" gazref="unlock:11284755" name="Skiddaw Forest" conf="2.4">Skiddaw</enamex> to the north; the bold steeps of <enamex sw="w9503" long="-2.780479631391105" lat="54.53212900095247" type="other" gazref="unlock:11312627" name="Wallow Crag" conf="2">Wallow Crag</enamex> and <enamex sw="w9519" long="-3.1366" lat="54.5563" type="manual update" gazref="unlock:11204948" name="Lodore Falls" conf="99992">Lowdore</enamex> to the east, and to the west, the cluster-ing mountains of <enamex sw="w9586" long="-3.185804700514816" lat="54.57418107642148" type="water" gazref="unlock:8790063" name="Newlands Beck" conf="2.4">Newlands</enamex>.</s> <s id="s53">Lowes Water is tame at the head, but towards its outlet has a magnificent assemblage of mountains.</s> <s id="s54">Yet neither <enamex sw="w9707" long="-3.351799651190464" lat="54.57703262453121" type="water" gazref="unlock:8772717" name="River Derwent" conf="2.4">Derwent</enamex> nor Lowes Water derive any supplies from the streams of those mountains that dignify the landscape towards the outlets."</s></p>
<p><s id="s55">Mr. Cumberlando observed," in truth a more pleasing tour than these Lakes hold out to men of leisure and curiosity, cannot be devised.</s> <s id="s56">We penetrate the Glaciers, traverse the <enamex sw="w10011" long="30.1833333" lat="-30.2833333" type="other" gazref="unlock:2811000" name="High Rhone" conf="0.8056922417">Rhone</enamex> and <enamex sw="w10021" long="-2.588036547287327" lat="51.55932065337507" type="water" gazref="unlock:8789137" name="Middle Rhine" conf="1.4">Rhine</enamex>, whilst our domestic Lakes of <enamex sw="w10057" long="-2.89078" lat="54.57564" type="manual update" gazref="ZZSH00028" name="Ullswater" conf="99992">Uls Water</enamex>, <enamex sw="w10068" long="-3.137880601359804" lat="54.60120234465001" type="ppl" gazref="unlock:11185565" name="Keswick" conf="2.6">Keswick</enamex>, and <enamex sw="w10081" long="-2.907933804199639" lat="54.37599546506077" type="ppl" gazref="unlock:10204" name="Windermere" conf="2.6">Windermere</enamex>, exhibit scenes in so sublime a style, with such beau-tiful colourings of rock, wood, and water, backed with so tremen-dous a disposition of mountains, that if they do not fairly take the lead of all the views of <enamex  sw="w10305" name="Large admin unit">Europe</enamex>, yet they are indisputably such, as no English traveller should leave behind him.</s></p>
<p><s id="s57">Such as spend their lives in cities, and their time in crowds, will here meet with objects that will enlarge their mind by contempla-tion, and raise it from nature to nature's first cause.</s></p>
<p><s id="s58">When exercise and change of air are recommended fro health, the convalescent will find the latter here in the purest state, and the former will be the concomitant of the tour.</s> <s id="s59">The many hills and mountains of various heights, separated by narrow vales, through which the air is agitated and hurried on by a multiplicity of brooks and mountain torrents, keep it in constant circulation, which is known to add much to its purity.</s> <s id="s60">The water is also as pure as the air, and on that account recommends itself by the valitudinarian.</s></p>
<p><s id="s61">The waters of the English Lakes are infinitely more pellucid and less subject to agitation than those of the Alps, in <enamex  sw="w11227" name="Large admin unit">Switzerland</enamex>, and, not like them, subject to any storms.</s></p>
<p><s id="s62">It is very common for tourist's to make this comparison between these mountains and those of the Alps.</s> <s id="s63">A gentleman who had passed much time abroad, and was well acquainted with the scenery of the Continent, recommends those persons who intend to make a tour on the Continent, to begin with a visit to our Lakes.</s> <s id="s64">He says it will afford them a miniature picture of what they are to meet with there; in traversing the Alps and <enamex sw="w11707" long="12" lat="43" type="manual update" gazref="Geoname_ID_3182982" name="Apennines" conf="99992">Appennines</enamex>, to which our northern mountains are not <enamex sw="w11759" long="-2.421557122390574" lat="53.29060765310844" type="civil" gazref="unlock:13406245" name="Tabley Inferior CP" conf="1.4">inferior</enamex> in beauty of line, or variety of summit, number of lakes, transparency of water, colouring of rocks, or softness of turf, but in height and extent only.</s></p>
<p><s id="s65">As Tarns are frequently mentioned in the course of these excur-sions, it is to be observed that" Tarns are bodies of still water found in some valleys, and are numerous among the mountains.</s> <s id="s66">A Tarn in a vale, generally implies that the bed of a vale is not happily formed; and in such situations they are often surrounded by an unsightly tract of boggy ground.</s> <s id="s67"><enamex sw="w12281" long="-3.421314275290081" lat="54.29258219417088" type="other" gazref="unlock:11297954" name="Tarn, The" conf="2">The Tarn</enamex> differs only from the Lake in being smaller of found in a circular recess.</s></p>
<p><s id="s68">As the best time of the year, the month of September has been recommended for visiting this select situation; its autum-nal appearance is thus preferred either to that of spring or summer.</s> <s id="s69">In the valleys there is then an admirable compass and proportion of natural harmony in colour through the whole scale of objects; as the tender green of the after-grass upon the meadows, interspersed with islands of grey or mossy rock, crowned by shrubs and trees, in the irregular enclosures of standing corn, or stubble fields; in the mountain sides, glowing with fern of divers colours; in the calm blue lakes, and river pools; and in the foliage of thetrees, through all the tints of autumn.</s> <s id="s70">To persons confined to time, the space between the middle or last week in May, and the middle of last week of June, as affording the best combination of long days, fine weather, and the consequent variety of impressions, had been recom-mended.</s> <s id="s71">Few or the native trees are then in full leaf; but what-ever may be wanting in depth of shade will be made up in the diversity of foliage, in the blossoms of the fruit, and the berry-bearing trees, which abount in the woods, and in the golden flowers of the broom and other shrubs.</s> <s id="s72">Still, on those mountains sides that have a northern aspect, many of the spring flowers are back-ward, whilst the open and sunny places are stocked with those of summer.</s> <s id="s73">Here the linnet and thrush chant their love-songs, safe from the birds of prey that build in the inaccessible crags, and are frequently heard or scen wheeling about in the air.</s> <s id="s74">In the narrow valleys here, it is remarked, there are no sky-larks, as their destroy-ers would be able to dart upon them from the nearest heights.</s> <s id="s75">The nightingale seldom resorts here, but almost all the other tribes of the English warblers are numerous.</s> <s id="s76">Several other circumstances render the close of spring particularly interesting, as the bringing down the ewes from the mountains to yean in the valleys and enclo-sed grounds.</s> <s id="s77">At this time, too, the traveller.</s> <s id="s78">will be sure of room, and comfortable accommodation, even in the small Inns.</s> <s id="s79">As to the order in which objects are best seen, it is observed, a lake will ap-pear to most advantage when approached from its outlet, especially if it be in a mountainous country.</s> <s id="s80">By this way of approach the spectator faces the grander features of the scene, and is gradually conducted into its most sublime recesses As to the precipitous sides of the mountains, and the neighbouring summits, they may be seen with effect under any atmosphere which allows of their being seen at all.</s> <s id="s81">The visitant to the mountains should reach the summit by sun-rise, or remain there till the time of sunset.</s> <s id="s82">A stranger to a mountainous country should take his early morning walk on the eastern side of the vale, otherwise he will lose the morning light, first touching the tops, and thence creeping down the sides of the opposite hills, as the sun ascends.</s> <s id="s83">If the line of the horizon in the east be low, the western side may be taken for the sake of the reflections upon the water: in the evening, for like reasons, the countrary course should be adopted.</s></p>
<p><s id="s84">A provincial poet has also indulged his muse upon this fruitful subject.</s></p>
<p><s id="s85">When summer suns lick up the dew, And all the heavens are painted blue,' Tis then with smiling cheeks we view The Stranger at the Lakes.</s></p>
<p><s id="s86">When morining tips with gold the boughs, And tinges <enamex sw="w15767" long="-3.123888158550623" lat="54.65526311800171" type="rgn" gazref="unlock:11284755" name="Skiddaw Forest" conf="2.4">Skiddaw</enamex>'s cloud-kissed brows, Then round the Lake the boatman rows The Stranger at the Lakes.</s></p>
<p><s id="s87">When grey-robed evening steps serene, Across the sweetly varied green, Beside some cascade may be seen, The Stranger at the Lakes.</s></p>
<p><s id="s88">He wose ideas never stray Beyond the person's gig and gray, Stares at the carriage and relay Of Strangers at the Lakes.</s></p>
<p><s id="s89">As by his cot the phaeton flies, The peasant gapes with mouth and eyes, And to his wondering family cries," A Stranger at the Lakes!"</s></p>
<p><s id="s90">Sometimes, when brewers' clearks appear, And Boniface is short of gear, He says," Kind Sir, we've had this year Few Strangers at the Lakes."</s></p>
<p><s id="s91">At Christmas, when the bar-maid shews Her lustre gown, and new kid shoes, She says," I tipped the cash for those From Strangers at the Lakes."</s></p>
<p><s id="s92">But could the post-horse, neighing, say What he has suffered night and day,' Tis much, I think, if he would pray For Strangers at the Lakes."</s></p>
<p> <s id="s93">Charles Williams.</s></p>
<p><s id="s94">Excursion I.</s>  <s id="s95">From <enamex sw="w16711" long="-2.801902525771824" lat="54.04660667916625" type="ppl" gazref="unlock:11190914" name="Lancaster" conf="3.134718443">Lancaster</enamex> to <enamex sw="w16724" long="-3.081393270948825" lat="54.19093311473023" type="ppl" gazref="unlock:10880" name="Ulverston" conf="2.6">Ulverston</enamex> over the sands.</s>
</p>
<p> <s id="s96">From <enamex sw="w16757" long="-2.801902525771824" lat="54.04660667916625" type="ppl" gazref="unlock:11190914" name="Lancaster" conf="3.134718443">Lancaster</enamex> to <enamex sw="w16770" long="-3.081393270948825" lat="54.19093311473023" type="ppl" gazref="unlock:10880" name="Ulverston" conf="2.6">Ulverston</enamex> over the sands.</s>		 <s id="s97">Miles.</s>	 <s id="s98">Miles.</s>	 <s id="s99"><enamex sw="w16814" long="-2.800813564608896" lat="54.09802913000562" type="ppl" gazref="unlock:20867" name="Hest Bank" conf="2.6">Hest Bank</enamex> 3 <enamex sw="w16829" long="-2.946673256907396" lat="54.19883752477664" type="ppl" gazref="unlock:42394" name="Cartmel" conf="2.6">Cartmel</enamex> Guide's house over the first sand 10 13 Road through <enamex sw="w16893" long="-2.97214" lat="54.17415" type="manual update" gazref="ZZSH00151" name="Flookburgh" conf="99992">Flookborough</enamex>, connecting the sands 3 ½ 16 ½ <enamex sw="w16938" long="-3.081393270948825" lat="54.19093311473023" type="ppl" gazref="unlock:10880" name="Ulverston" conf="2.6">Ulverston</enamex> 4 ½ 21 Avoiding the sands, the road from <enamex sw="w16991" long="-2.801902525771824" lat="54.04660667916625" type="ppl" gazref="unlock:11190914" name="Lancaster" conf="3.134718443">Lancaster</enamex> to <enamex sw="w17004" long="-3.081393270948825" lat="54.19093311473023" type="ppl" gazref="unlock:10880" name="Ulverston" conf="2.6">Ulverston</enamex> is, to <enamex sw="w17022" long="-2.772858747652117" lat="54.12769635103146" type="ppl" gazref="unlock:11099650" name="Carnforth" conf="2.6">Carnforth</enamex> 5 ½ <enamex sw="w17038" long="-2.769127315842688" lat="54.14386783526574" type="ppl" gazref="unlock:13852" name="Warton" conf="2.6">Warton</enamex> 1 ½ 7 <enamex sw="w17053" long="-2.758212674967587" lat="54.16374445139319" type="ppl" gazref="unlock:11328416" name="Yealand Conyers" conf="2.6">Yealand Conyers</enamex> 1 ½ 8 ½-- <enamex sw="w17083" long="-79.59963669299999" lat="45.15010006" type="other" gazref="unlock:5355971" name="Redman Island" conf="0.72005408">Redman</enamex> 1 9 ½-- <enamex sw="w17103" long="-2.922041660246325" lat="54.34974598582294" type="ppl" gazref="unlock:14113" name="Storrs" conf="2.6">Storrs</enamex> 1 10 ½ <enamex sw="w17119" long="-0.6592129313303114" lat="51.92123743815779" type="ppl" gazref="unlock:10943" name="Leighton Buzzard" conf="1.56585873">Leighton</enamex> Furnace 1 ½ 12 <enamex sw="w17145" long="-2.774367921939331" lat="54.20858511474237" type="ppl" gazref="unlock:11073515" name="Beetham" conf="2.6">Beetham</enamex> 1 ½ 13 ½ <enamex sw="w17163" long="-1.527467726519327" lat="53.28426085101107" type="ppl" gazref="unlock:11220051" name="Millthorpe" conf="1.6">Millthorpe</enamex> 2 15 ½ <enamex sw="w17183" long="-2.771158939826253" lat="54.24611955716948" type="ppl" gazref="unlock:25647" name="Heversham" conf="2.6">Heversham</enamex> 1 ¼ 16 ¾ <enamex sw="w17203" long="-2.788353495453104" lat="54.27053820434658" type="ppl" gazref="unlock:28630" name="Levens" conf="2.6">Levens</enamex> 1 ¼ 18 <enamex sw="w17219" long="-2.894069579126735" lat="54.21643024262539" type="ppl" gazref="unlock:34185" name="Lindale" conf="2.6">Lindale</enamex> 5 23 <enamex sw="w17235" long="-1.579210502385161" lat="54.61048074701741" type="ppl" gazref="unlock:11433" name="Newton Aycliffe" conf="1.6">Newton</enamex> 2 25 <enamex sw="w17250" long="-2.959809373549684" lat="54.2701718942731" type="ppl" gazref="unlock:11229861" name="Newby Bridge" conf="2.6">Newby Bridge</enamex> 3 ½ 28 ½ Bouth 3 ½ 32 Penny Bridge 2 34 <enamex sw="w17309" long="-3.081393270948825" lat="54.19093311473023" type="ppl" gazref="unlock:10880" name="Ulverston" conf="2.6">Ulverston</enamex> 4 38</s>	</p>
<p><s id="s100">The new road from <enamex sw="w17345" long="-2.801902525771824" lat="54.04660667916625" type="ppl" gazref="unlock:11190914" name="Lancaster" conf="3.134718443">Lancaster</enamex> to <enamex sw="w17358" long="-3.081393270948825" lat="54.19093311473023" type="ppl" gazref="unlock:10880" name="Ulverston" conf="2.6">Ulverston</enamex> is scarcely less pleasant tit its prospects, and runs ofver much more even ground; it is several miles shorter than the old one. From <enamex sw="w17504" long="-2.772858747652117" lat="54.12769635103146" type="ppl" gazref="unlock:11099650" name="Carnforth" conf="2.6">Carnforth</enamex>, on the way to <enamex sw="w17529" long="-1.527467726519327" lat="53.28426085101107" type="ppl" gazref="unlock:11220051" name="Millthorpe" conf="1.6">Millthorpe</enamex>, it passes between the <enamex sw="w17563" long="-0.6830826725371462" lat="52.36456071486649" type="ppl" gazref="unlock:10517" name="Burton Latimer" conf="1.549104265">Burton</enamex> and War Ton roads, and joins the one from <enamex sw="w17612" long="-2.801902525771824" lat="54.04660667916625" type="ppl" gazref="unlock:11190914" name="Lancaster" conf="3.134718443">Lancaster</enamex> through <enamex sw="w17630" long="-2.769127315842688" lat="54.14386783526574" type="ppl" gazref="unlock:13852" name="Warton" conf="2.6">Warton</enamex> to <enamex sw="w17640" long="-1.527467726519327" lat="53.28426085101107" type="ppl" gazref="unlock:11220051" name="Millthorpe" conf="1.6">Millthorpe</enamex> at <enamex sw="w17654" long="-2.774367921939331" lat="54.20858511474237" type="ppl" gazref="unlock:11073515" name="Beetham" conf="2.6">Beetham</enamex>, and even in that distance, reduces the length nearly two miles.</s></p>
<p><s id="s101"><enamex sw="w17727" long="-2.7115" lat="54.1809" type="manual update" gazref="Geoname_ID_7293213" name="Burton in Kendal" conf="99992">Burton in Kendal</enamex> though not lying in our rout, may here be noticed, as some approach the lakes by that road proceeding thence to <enamex sw="w17856" long="-1.527467726519327" lat="53.28426085101107" type="ppl" gazref="unlock:11220051" name="Millthorpe" conf="1.6">Millthorpe</enamex>.</s> <s id="s102"><enamex sw="w17868" long="-2.7115" lat="54.1809" type="manual update" gazref="Geoname_ID_7293213" name="Burton in Kendal" conf="99992">Burton in Kendal</enamex> is twenty - two miles from <enamex sw="w17910" long="-2.801902525771824" lat="54.04660667916625" type="ppl" gazref="unlock:11190914" name="Lancaster" conf="3.134718443">Lancaster</enamex>, just beyond which, on our right, we may observe <enamex sw="w17969" long="-2.6979" lat="54.218" type="manual update" gazref="unlock:11142149" name="Farleton Knot" conf="99992">Farlton</enamex> know, a beautiful naked limestone mountain, said to bear a striking resemblance to the rock of <enamex sw="w18072" long="-5.391411066055298" lat="36.17001533508301" type="ppla" gazref="unlock:14126922" name="Gibraltar" conf="1.378575767">Gibraltar</enamex>.</s></p>
<p> <s id="s103">From <enamex sw="w18089" long="-2.801902525771824" lat="54.04660667916625" type="ppl" gazref="unlock:11190914" name="Lancaster" conf="3.134718443">Lancaster</enamex> to <enamex sw="w18102" long="-3.081393270948825" lat="54.19093311473023" type="ppl" gazref="unlock:10880" name="Ulverston" conf="2.6">Ulverston</enamex></s></p>
<p><s id="s104">A new road from <enamex sw="w18128" long="-2.801902525771824" lat="54.04660667916625" type="ppl" gazref="unlock:11190914" name="Lancaster" conf="3.134718443">Lancaster</enamex> to <enamex sw="w18141" long="-2.628155075629303" lat="51.60218710410136" type="other" gazref="unlock:11159328" name="Great Ulverstone" conf="0.9817574702">Ulverstone</enamex> is completed, and forms a safer and more convenient com-munication between the two towns, than the former road over the sands.</s> <s id="s105">It likewise affords a more level road to <enamex sw="w18320" long="-2.745809060481465" lat="54.32561646560368" type="ppl" gazref="unlock:11185036" name="Kendal" conf="3.093870132">Kendal</enamex> from <enamex sw="w18332" long="-3.081393270948825" lat="54.19093311473023" type="ppl" gazref="unlock:10880" name="Ulverston" conf="2.6">Ulverston</enamex>, some parts of <enamex sw="w18357" long="-2.946673256907396" lat="54.19883752477664" type="ppl" gazref="unlock:42394" name="Cartmel" conf="2.6">Cartmel</enamex> and <enamex sw="w18369" long="-2.870270619568472" lat="54.24800657671408" type="ppl" gazref="unlock:42588" name="Witherslack" conf="2.6">Witherslack</enamex>; and as this road passes <enamex sw="w18406" long="-2.788353495453104" lat="54.27053820434658" type="ppl" gazref="unlock:28630" name="Levens" conf="2.6">Levens</enamex>, it is within three miles of joining the main road from <enamex sw="w18469" long="-1.475695967674255" lat="53.75947761535645" type="ppla" gazref="unlock:14126330" name="Leeds" conf="2.531625757">Leeds</enamex>, and all the western part of <enamex  sw="w18504" name="Large admin unit">Yorkshire</enamex>.</s></p>
<p><s id="s106">Those who set out from <enamex sw="w18538" long="-2.801902525771824" lat="54.04660667916625" type="ppl" gazref="unlock:11190914" name="Lancaster" conf="3.134718443">Lancaster</enamex> may enjoy one of the finest afternoon rural views in <enamex  sw="w18601" name="Large admin unit">England</enamex>.</s> <s id="s107">The best station for this purpose, is on the south side of the great or Queen's road, a little higher than where Mr. Grey stood; for the vale of the <enamex sw="w18759" long="-2.672622913542797" lat="54.21368667875034" type="water" gazref="unlock:8788892" name="River Lune" conf="2.4">River Lune</enamex> is in full display.</s> <s id="s108">What is called the wheel of Lune is a high crowded isthmus, fringed with tall trees, some of which is still conceal the nakedness of <enamex sw="w18923" long="-2.649451622290753" lat="54.06550415363499" type="other" gazref="unlock:11101655" name="Caton Moor" conf="2">Caton moor</enamex> on the right.</s></p>
<p><s id="s109">The vale of Lune, all the way from <enamex sw="w18983" long="-2.801902525771824" lat="54.04660667916625" type="ppl" gazref="unlock:11190914" name="Lancaster" conf="3.134718443">Lancaster</enamex> to <enamex sw="w18996" long="-2.634857118950411" lat="54.11052582116307" type="ppl" gazref="unlock:11179343" name="Hornby" conf="2.6">Hornby</enamex>( nine miles), is singularly beautiful.</s> <s id="s110"><enamex sw="w19042" long="-2.63237" lat="54.11144" type="other" gazref="unlock:5824881" name="Hornby Castle" conf="2">Hornby castle</enamex>, though of various dates and architecture, is a fine object from many points.</s> <s id="s111">Persons limited to time may leave the vale of Lune and pass direct from <enamex sw="w19206" long="-2.801902525771824" lat="54.04660667916625" type="ppl" gazref="unlock:11190914" name="Lancaster" conf="3.134718443">Lancaster</enamex> by way of <enamex sw="w19226" long="-2.745809060481465" lat="54.32561646560368" type="ppl" gazref="unlock:11185036" name="Kendal" conf="3.093870132">Kendal</enamex> and <enamex sw="w19237" long="-3.20953099163933" lat="54.95240084458308" type="ppl" gazref="unlock:39176" name="Bowness-On- Solway" conf="2.6">Bowness</enamex> to <enamex sw="w19248" long="-2.959272920560253" lat="54.43199742280473" type="ppl" gazref="unlock:11255" name="Ambleside" conf="2.6">Ambleside</enamex>, or through <enamex sw="w19270" long="-3.081393270948825" lat="54.19093311473023" type="ppl" gazref="unlock:10880" name="Ulverston" conf="2.6">Ulverston</enamex> and by <enamex sw="w19287" long="-3.069150080092114" lat="54.34116196598502" type="water" gazref="unlock:11115206" name="Coniston Water" conf="2.4">Coniston water</enamex> to <enamex sw="w19305" long="-2.959272920560253" lat="54.43199742280473" type="ppl" gazref="unlock:11255" name="Ambleside" conf="2.6">Ambleside</enamex>.</s></p>
<p><s id="s112">From <enamex sw="w19321" long="-2.801902525771824" lat="54.04660667916625" type="ppl" gazref="unlock:11190914" name="Lancaster" conf="3.134718443">Lancaster</enamex> to Hest bank the distance is three miles.</s> <s id="s113">The <enamex sw="w19377" long="-2.801902525771824" lat="54.04660667916625" type="ppl" gazref="unlock:11190914" name="Lancaster" conf="3.134718443">Lancaster</enamex> sands, which commence here, are nine miles over.</s> <s id="s114">On the right is a bold shore, deeply indented in some places, and opening into bays in others; valleys that stretch far into the coun-try, bounded on each side by hanging grounds, cut into inclosure, interspersed with groves and woods, adorned with sequestered cols, farms, villages, churches, and castles; mountains behind mountains, and others again just seen over them, close the first scene.</s> <s id="s115">Entering on the sands to the left.</s> <s id="s116"><enamex sw="w19867" long="-2.8937" lat="54.0627" type="manual update" gazref="unlock:13240388" name="Heysham" conf="99992">Heysham point</enamex> rises abruptly, and the village is seen upon its side.</s> <s id="s117"><enamex sw="w19936" long="-3.29016003692186" lat="54.45940722344784" type="water" gazref="unlock:8790319" name="Over Beck" conf="2.4">Over</enamex> the vast extent of sand, <enamex sw="w19966" long="-4.692535773887674" lat="54.22593372544603" type="fac" gazref="unlock:11241717" name="Peel Castle" conf="0.8141282301">Peel Castle</enamex>, the ancient Bulwark of the bay, rears its venerable head above the tide.</s> <s id="s118">A fine sweep of country appears sloping to the south.</s> <s id="s119"><enamex sw="w20106" long="-2.7734" lat="54.1547" type="manual update" gazref="unlock:11313878" name="Warton Crag" conf="99992">Warton Cragg</enamex> presents itself to the right with the ruins of a beacon on its summit.</s> <s id="s120">Grounds, variegated to the eye by every pleasing form for many a mile, are terminated by the cloud-hand, another vale opens to the sands, and shows a broken ridge of rocks.</s> <s id="s121">Castle Stends, a pyramidal bill, rising above the station at <enamex sw="w20424" long="-2.745809060481465" lat="54.32561646560368" type="ppl" gazref="unlock:11185036" name="Kendal" conf="3.093870132">Kendal</enamex>, is now seen.</s> <s id="s122">At the bottom of the bay stands <enamex sw="w20477" long="-2.83247" lat="54.18446" type="other" gazref="unlock:5826060" name="Arnside Tower" conf="2">Arnside Tower</enamex>, once a manison of the Stanleys.</s></p>
<p><s id="s123"><enamex sw="w20524" long="-2.946673256907396" lat="54.19883752477664" type="ppl" gazref="unlock:42394" name="Cartmel" conf="2.6">Cartmel</enamex> is placed in a luxuriantly wooded valley; the church rises grandly, and is an interesting object from many points.</s> <s id="s124">The streets are narrow, the houses irregularly built, and the chief support of the inhabitants is derived from the expenditure of the numerous persons who visit this place in the sum-mer months, on account of the medicinal properties of its medicinal spring, or well, situated at the base of a projecting rock, about three miles to the south of the town.</s></p>
<p><s id="s125">The <enamex sw="w21006" long="-2.946673256907396" lat="54.19883752477664" type="ppl" gazref="unlock:42394" name="Cartmel" conf="2.6">Cartmel</enamex> Coast now becomes more pleasing.</s> <s id="s126">Betwixt that adn Silver Dale-nah, a mountain of naked rock, there is a great break in the coast, through which runs the <enamex sw="w21167" long="-2.745484042987077" lat="54.30764151236711" type="water" gazref="unlock:11270577" name="River Kent" conf="2.4">River Kent</enamex>.</s> <s id="s127">In the mouth of the estuary are two beautiful conical isles, which often seem to vary their appearance as we approach them.</s> <s id="s128">Here a grand view of the <enamex  sw="w21328" name="Large admin unit">Westmoreland mountains</enamex> opens; and at the head of the estuary just mentioned.</s> <s id="s129"><enamex sw="w21405" long="-2.7759" lat="54.2433" type="manual update" gazref="unlock:13903834" name="Heversham" conf="99992">Heversham village</enamex> and church appear under a beautiful green hill.</s> <s id="s130">On the north is Whit Barrow <enamex sw="w21499" long="-2.053812050986411" lat="54.31892107938371" type="ppl" gazref="unlock:11226948" name="Nappa Scar" conf="1.6">Scar</enamex>, a huge arched and bended cliff.</s> <s id="s131">At the side of the Eau, or river of the sands, a guide on horseback, called the Carter waits to conduct pas-sangers over the Ford.</s> <s id="s132">It is three miles across from <enamex sw="w21698" long="-75.7857491" lat="41.3125803" type="other" gazref="unlock:7925766" name="Cork Lane" conf="0.6357882683">Cork Lane</enamex>, where we quit the sands, to <enamex sw="w21737" long="-2.988154877868169" lat="54.17106608381279" type="ppl" gazref="unlock:11277458" name="Sand Gate" conf="2.6">Sand Gate</enamex>: we then pass through <enamex sw="w21769" long="-2.972837107541548" lat="54.17119078892241" type="ppl" gazref="unlock:11145667" name="Flookburgh" conf="2.6">Flookburgh</enamex> once a market-town.</s> <s id="s133">The Ford over the River <enamex sw="w21824" long="-2.989724572366603" lat="54.25573037981277" type="water" gazref="unlock:8791312" name="River Leven" conf="2.4">Leven</enamex>, between <enamex sw="w21839" long="-2.972837107541548" lat="54.17119078892241" type="ppl" gazref="unlock:11145667" name="Flookburgh" conf="2.6">Flookburgh</enamex> and <enamex sw="w21854" long="-2.628155075629303" lat="51.60218710410136" type="other" gazref="unlock:11159328" name="Great Ulverstone" conf="0.9817574702">Ulverstone</enamex>, is subject to many chan-ges; but when higher up the river, the way to the sands is by <enamex sw="w21952" long="-2.98858352875109" lat="54.18904029214188" type="fac" gazref="unlock:11176860" name="Holker Hall" conf="2.2">Holker Hall</enamex>, or <enamex sw="w21968" name="Warf Flat">Warf Flat</enamex>.</s></p>
<p><s id="s134"><enamex sw="w21979" long="-2.98858352875109" lat="54.18904029214188" type="fac" gazref="unlock:11176860" name="Holker Hall" conf="2.2">Holker Hall</enamex> is embosomed in wood.</s> <s id="s135">On the left, <enamex sw="w22026" long="-3.0645" lat="54.1614" type="manual update" gazref="unlock:11309270" name="Leven Sands" conf="99992">Ulverston bay</enamex> opens into the great bay and is three miles over: on the right, a fine slope of enclosed grounds, mixed with wood, leads the eye to <enamex sw="w22172" long="-3.081393270948825" lat="54.19093311473023" type="ppl" gazref="unlock:10880" name="Ulverston" conf="2.6">Ulverston</enamex>; the port and mart <enamex sw="w22201" long="-3.205728845294711" lat="54.27695240936971" type="ppl" gazref="unlock:11089765" name="Broughton in Furness" conf="2.6">Furness</enamex> Conishead then shews its pyramidal summit completely clothed in woods; at its feet is the priory, <enamex sw="w22307" long="-3.064511196376497" lat="54.16142643107754" type="ppl" gazref="unlock:11069857" name="Bardsea" conf="2.6">Bardsea</enamex> stands in a delight-ful point of view under its rocks and hanging woods.</s> <s id="s136">A white house on the sea bank, under the cover of a deep wood, has a picturesque appearance.</s> <s id="s137">The road from <enamex sw="w22495" long="-2.990087506142731" lat="54.25194957957786" type="ppl" gazref="unlock:11066519" name="Backbarrow" conf="2.6">Backbarrow</enamex> to <enamex sw="w22509" long="-2.989872299218943" lat="54.24296258057584" type="fac" gazref="unlock:11076850" name="Bigland Hall" conf="2.2">Bigland Hall</enamex> to <enamex sw="w22525" long="-2.946673256907396" lat="54.19883752477664" type="ppl" gazref="unlock:42394" name="Cartmel" conf="2.6">Cartmel</enamex>, placed in a luxiriant valley, has fine scenery attach-ed to it.</s> <s id="s138">Wraysholm Tower, and old farm-house, us half a mile to the left of the traveller as he passes between sand and sand; and near it is <enamex sw="w22730" long="-2.926481469994323" lat="54.15357863275982" type="other" gazref="unlock:11181017" name="Humphrey Head Point" conf="2">Humphrey Head</enamex>, a promontory rising boldly from the sea, and at thhe foot of this hill is the famous Spa called <enamex sw="w22841" long="-2.941792945442159" lat="54.15345984931304" type="water" gazref="unlock:11178031" name="Holy Well" conf="2.4">Holy Well</enamex>, said to be serviceable in cutaneous disorders.</s> <s id="s139">Cork Hall is an ancient farm-house; Grange, situated on a steep bank, above the sea, three miles east of <enamex sw="w23004" long="-2.946673256907396" lat="54.19883752477664" type="ppl" gazref="unlock:42394" name="Cartmel" conf="2.6">Cartmel</enamex>, is esteemed the most picturesque village in that neighbourhood.</s> <s id="s140">On crossing the <enamex sw="w23093" long="-2.989724572366603" lat="54.25573037981277" type="water" gazref="unlock:8791312" name="River Leven" conf="2.4">Leven</enamex> sands to <enamex sw="w23108" long="-2.628155075629303" lat="51.60218710410136" type="other" gazref="unlock:11159328" name="Great Ulverstone" conf="0.9817574702">Ulverstone</enamex>, on the right, we have a grand view of alpine scenery.</s></p>
<p><s id="s141">Whilst a traveller is passing <enamex sw="w23204" long="-2.801902525771824" lat="54.04660667916625" type="ppl" gazref="unlock:11190914" name="Lancaster" conf="3.134718443">Lancaster</enamex> Sands, his notice is not so much attracted by the objects of the surrounding country, as by the sands themselves.</s> <s id="s142">For when he has got a few miles from the shore, the nature of the plain on which he treads cannot but suggest a series of ideas of a different kind from those of rural elegance, and which naturally force themselves upon his attention.</s> <s id="s143">The plain is then seemingly immense in extent, continued on in a dead level, and uniform in appearance.</s> <s id="s144">As he pursues his often trackless way, he will recollect, that probably, but a few hours before, the whole expanse was co-vered with some fathoms of water, and that in a few more, it will as certainly be covered again.</s> <s id="s145">At the same time he may also perceive on his left hand, the retreated Ocean ready to obey the mysterious laws of its irresistible movement, without any visible barrier to stay it a moment where it is.</s> <s id="s146">These considera-tions, though they may not be sufficient to alarm, must yet be able to rouse the mind to a style of more than ordinary attention.</s> <s id="s147">But when the traveller reaches the side of the Eau, whose affections will be greatly increased: he there drops down a gentle descent to the edge of a broad and seemingly im-passable river, where the only remains he can per-ceive of the surrounding lands, are the tops of dis-tant mountains.</s> <s id="s148">But having crossed the river, the stranger traveller, at length freed from every petty anxiety, will feel more inclination to survey the ob-jects around him, especially those peculiar to an arm of the sea; as fishermen, ships, sea-fowl, shells, weeds,&amp; c.</s> <s id="s149">But if the sun shine forcibly, he weill per-haps be most entertained with observing the little gay promontories of land that seem to hover in the air, or swim on a luminous vapour, that rises from the sand and fluctuates upon its surface.</s></p>
<p><s id="s150">Excursion Ii.</s>
</p>
<p> <s id="s151"><enamex sw="w25035" long="-3.081393270948825" lat="54.19093311473023" type="ppl" gazref="unlock:10880" name="Ulverston" conf="2.6">Ulverston</enamex> to <enamex sw="w25048" long="-3.201549006999698" lat="54.13316968437257" type="fac" gazref="unlock:11148990" name="Furness Abbey" conf="2.2">Furness Abbey</enamex>.</s></p>
<p>	 <s id="s152">Miles.</s>	 <s id="s153">Miles.</s>	 <s id="s154"><enamex sw="w25081" long="-3.081393270948825" lat="54.19093311473023" type="ppl" gazref="unlock:10880" name="Ulverston" conf="2.6">Ulverston</enamex> to <enamex sw="w25094" long="-3.177980552513582" lat="54.15480048261493" type="ppl" gazref="unlock:11514" name="Dalton-In-Furness" conf="2.6">Dalton</enamex> <enamex sw="w25102" long="-3.201549006999698" lat="54.13316968437257" type="fac" gazref="unlock:11148990" name="Furness Abbey" conf="2.2">Furness Abbey</enamex> Back to <enamex sw="w25125" long="-3.081393270948825" lat="54.19093311473023" type="ppl" gazref="unlock:10880" name="Ulverston" conf="2.6">Ulverston</enamex> <enamex sw="w25136" long="-3.081393270948825" lat="54.19093311473023" type="ppl" gazref="unlock:10880" name="Ulverston" conf="2.6">Ulverston</enamex>, by the western side of the Lake, to <enamex sw="w25183" long="-90.2607" lat="29.9831" type="other" gazref="unlock:8666688" name="Best Western New Orleans Inn At The Airport" conf="0.8133845826">the New Inn</enamex> at <enamex sw="w25198" long="-3.071790052749298" lat="54.36868891187336" type="ppl" gazref="unlock:25643" name="Coniston" conf="3.1">Coniston</enamex> <enamex sw="w25207" long="-3.054689994363566" lat="54.37724386049945" type="ppl" gazref="unlock:11172525" name="High Water Head" conf="2.6">Water Head</enamex>.</s>	 <s id="s155"><enamex sw="w25220" long="-3.081393270948825" lat="54.19093311473023" type="ppl" gazref="unlock:10880" name="Ulverston" conf="2.6">Ulverston</enamex> to <enamex sw="w25233" long="-3.090427364" lat="54.2913256" type="manual update" gazref="ZZSH00122" name="Bouthrey Bridge" conf="99992">Bowdray</enamex> Bridge, near <enamex sw="w25254" long="-3.083349270052798" lat="54.29609159078057" type="ppl" gazref="unlock:11172194" name="High Nibthwaite" conf="2.6">Nibthwaite</enamex>, either by <enamex sw="w25276" long="-3.082642082112015" lat="54.26913154387659" type="ppl" gazref="unlock:11209124" name="Lowick" conf="2.6">Lowick</enamex>, or by <enamex sw="w25290" long="-3.060088511" lat="54.24063568" type="manual_update"  gazref="ZZSH00218" name="Penny Bridge" conf="99991">Penny Bridge</enamex> 8 ½ Oxen Houses 3 11 ½ <enamex sw="w25330" long="-3.104151401188731" lat="54.33836116242543" type="ppl" gazref="unlock:29871" name="Torver" conf="2.6">Torver</enamex> 2 13 ½ <enamex sw="w25346" long="-3.071790052749298" lat="54.36868891187336" type="ppl" gazref="unlock:25643" name="Coniston" conf="3.1">Coniston</enamex> Church 2 ½ 16 Inn at <enamex sw="w25378" long="-3.054689994363566" lat="54.37724386049945" type="ppl" gazref="unlock:11172525" name="High Water Head" conf="2.6">Water Head</enamex> 1 17</s>	</p>
<p> <s id="s156">But the Road usually travelled is by the easter side of the Lake.</s>	 <s id="s157">To <enamex sw="w25468" long="-3.083349270052798" lat="54.29609159078057" type="ppl" gazref="unlock:11172194" name="High Nibthwaite" conf="2.6">Nibthwaite</enamex> 8 ½ <enamex sw="w25485" long="-2.750489709396887" lat="51.69987758273463" type="ppl" gazref="unlock:31118" name="New Inn" conf="1.524578202">New Inn</enamex> 7 ½ 16</s>	</p>
<p><s id="s158">From Ulverson the road turns to the southward, and we pass <enamex sw="w25561" long="-3.064741936428078" lat="54.17041334190125" type="other" gazref="unlock:11115195" name="Conishead Priory" conf="2">Conishead Priory</enamex> and <enamex sw="w25582" long="-3.072" lat="54.1619" type="manual update" gazref="Norgate_ID_SD30107454" name="Bardsey" conf="99992">Bardsea Hall</enamex> on the left.</s> <s id="s159">The village of <enamex sw="w25623" long="-3.13333" lat="54.18333" type="other" gazref="unlock:4564835" name="Pennington" conf="2">Pennington</enamex> lies at a short distance from the road, on the right, nearly opposite to which, on the left, is the little tarn or lake of Urswick; rather mmorethan a mile from which appears <enamex sw="w25809" long="-3.125034079844071" lat="54.13390909437263" type="fac" gazref="unlock:11153846" name="Gleaston Castle" conf="2.2">Gleaston Castle</enamex>.</s> <s id="s160">Proceeding through the village of <enamex sw="w25860" long="-3.141325840284184" lat="54.16971190923852" type="ppl" gazref="unlock:11195168" name="Lindal in Furness" conf="2.6">Lindal</enamex> we leave Titup on the right, Adgerly and <enamex sw="w25908" long="-3.328418120581123" lat="54.34006692308149" type="water" gazref="unlock:8773439" name="Stainton Beck" conf="2.4">Stainton</enamex> on the left, and arrive at <enamex sw="w25944" long="-3.177980552513582" lat="54.15480048261493" type="ppl" gazref="unlock:11514" name="Dalton-In-Furness" conf="2.6">Dalton</enamex>.</s></p>
<p><s id="s161">The magnificent remains of the Abbey of <enamex sw="w25992" long="-3.205728845294711" lat="54.27695240936971" type="ppl" gazref="unlock:11089765" name="Broughton in Furness" conf="2.6">Furness</enamex>, situated about a mile south of <enamex sw="w26032" long="-3.177980552513582" lat="54.15480048261493" type="ppl" gazref="unlock:11514" name="Dalton-In-Furness" conf="2.6">Dalton</enamex>, in a valley called Beacon's Gill, are very correctly described by the elegant pen of Mrs. Radcliff.</s></p>
<p><s id="s162">Beneath the brow on which the Church of <enamex sw="w26180" long="-3.177980552513582" lat="54.15480048261493" type="ppl" gazref="unlock:11514" name="Dalton-In-Furness" conf="2.6">Dalton</enamex> and tower stan, a brook flows through a narrow valley, that winds about a mile and a half to the abbey.</s> <s id="s163">In the way thither, we passed the entrance of one of the very rich iron mines, with which the neightbour-hood abounds; and the deep red tint of the soil that overspreads almost the whole of the country between <enamex sw="w26501" long="-3.081393270948825" lat="54.19093311473023" type="ppl" gazref="unlock:10880" name="Ulverston" conf="2.6">Ulverston</enamex> and the monastery, sufficiently indicates the nature of the treasures beneath.</s></p>
<p><s id="s164">" In a close glen, branching from the valley, shrouded by winding banks, clumped with old groves of oak and chesnut, we found the magnificent re-mains of <enamex sw="w26743" long="-3.201549006999698" lat="54.13316968437257" type="fac" gazref="unlock:11148990" name="Furness Abbey" conf="2.2">Furness Abbey</enamex>.</s> <s id="s165">The deep retirement of its situation, the venerable grandeur of its gothic arches, and the luxuriant, yet ancient trees, that sha-dow this forsaken spot, are circumstances of picturesque, and if the expression may beallowed, of sentimental beauty, which fill the mind with solemn, yet delightful emotion.</s> <s id="s166">This glen is called the Vale of Nightshade, or more literally from its ancient title, Bekangsgill,' the glen of deadly nightshade,' that plant being abundantly found in the neighbourhood.</s></p>
<p><s id="s167">Its romantic gloom, and sequestered privacy, particularly adapted it to the austerities of monastle life; and in the most retired part of it, King Stephen, while Earl of Mortaign and Bulloign, founded, in the year 1127, the magnificent monastery of <enamex sw="w27500" long="-3.205728845294711" lat="54.27695240936971" type="ppl" gazref="unlock:11089765" name="Broughton in Furness" conf="2.6">Furness</enamex>, and endowed it with princely wealth and almost princely authority, in which it was second only to Fontaine's Abbey, in <enamex  sw="w27628" name="Large admin unit">Yorkshire</enamex>.</s></p>
<p><s id="s168">" The windings of the glen conceal these vene-rable ruins, till they are closely approached; and the by-road that conducted us; is margined with a few ancient oaks, which stretch their broad branches entirely across it, and are fine preparatory objects to the scene beyond.</s> <s id="s169">A sudden bend in this road brought us within a view of the northern gate of the abbey, a beautiful gothic arch, one side of which is luxuariantly festooned with nightshade.</s> <s id="s170">A thick grove of plane trees, with some oak and beech, over-shadow it on the right, and lead the eye onward to the ruins of the abbey, seen through this dark arch in remote perspective, over rough but verdant ground.</s> <s id="s171">The principal features are the northern window, and part of the eastern choir, with glimpses of shattered arches and stately walls beyond, caught between the gaping casements.</s> <s id="s172">On the left, the banks of the glen is broken into knolls, caèèed wotj pals, which, in some places, sppread downwards to a stream that winds round the ruin, and sarken it with their rich foliage.</s> <s id="s173">Through this gate is the entrance to the immediate precints of the abbey, an area, said to contain 65 acres, now called the deer-park; it is inclosed by a stone wall, on which the remains of many small buildings and the faint verstiges of others, still appear; such as the porter's lodge, mills, granaries, ovens, and kilns, that once supplied the monastery; some of which, seen under the shade of fine old trees, that on every side adorn the broken steeps of this glen, have a very very interesting effect.</s></p>
<p><s id="s174">" Just within the gate, a small manor-house of modern date, with its stables and other offices, breaks discordantly upon the lonely grandeur of the scene.</s> <s id="s175">Except this, the character of the deserted ruins is scrupulously preserved in the surrounding areas: no spade has dared to level the inequalities which fallen fragments have occasioned in the ground, or shears to clip the wild underwood that overspreads it; but every circumstance conspires to heighten the solitary grace of the principal object, and to prolong the lux-urious melancholy which the view of it inspires.</s> <s id="s176">We made our way among the pathless fern and grass to the north end of the church, now, like every other part of the abbey, entirely roofless; but shewing the lofty arch of the great window, where instead of the painted glass that once enriched it, are now tufted plants, and wreaths of nightshade.</s> <s id="s177">Below is the principal door of the church, bending into a deep round arch, which, retiring circle within circle, is rich and beautiful; the remains of a winding stair-case are visible within the wall on its left side.</s> <s id="s178">Near this northern end of the edifice, is seen one side of the eastern choir, with its two slender gothic win-dow frames; and on the west, a remnant of the nave of the abbey, and some lofty arches, which once be-longed to the belfry, now detached from the main building.</s></p>
<p><s id="s179">" To the south, but concealed from this point of view, is the chapter-house, some years ago exhibiting a roof of beautiful gothic fret-work, and which was almost the only part of the abbey thus ornamented; its architecture having been characterized by an air of gran simplicity, rather than by the elegance and richness of decoration, which at an after date, dis-tinguished the gothic style in <enamex  sw="w30934" name="Large admin unit">England</enamex>.</s> <s id="s180"><enamex sw="w30943" long="-3.29016003692186" lat="54.45940722344784" type="water" gazref="unlock:8790319" name="Over Beck" conf="2.4">Over</enamex> the chapter-house were once the library and scriptorium; and beyond it are still the remains of cloisters, of the refectory, the locutorium, or conversation room, and the calefactory.</s> <s id="s181">These, with the walls of some chapels, of the vestry, a hall, and of what is be - lieved to have been a school-house, are all the fea-tures of this noble edifice that can easily be traced: winding stair-cases within the surprising thickness of the walls, and door-cases involved in darkness and mystery, the place abounds with.</s></p>
<p><s id="s182">" The abbey, which was formerly of such magni-tude as nearly to fill up the breadth of the glen, is built of a pale red stone, dug from the neighbouring rocks, now changed by time and weather to a tint of dusky brown, which accords well with the hues of plants and shrubs, that every where emboss the moul-dering arches.</s></p>
<p><s id="s183">" The finest view of the ruin is on the east side, where, beyond the vast shattered frame that once contained a rich painted window, is seen a perspec-tive of the choir and of the distant arches; remains of the nave of the abbey, closed by the woods.</s> <s id="s184">This perspective of the ruin is said to be 287 feet in length; the choir part of it is in width only 38 feet inside, but the nave is 70: the walls, as they now stand, are 54 feet high, and in thickness five.</s> <s id="s185">Southward from the choir, extent the still beautiful, though broken, pillars and arcades of some chapels now laid open to the day; the chapter-house, the cloisters, and, beyond all, and detached from all, is the school-house, a large building, the only part of the monastery that still boasts a roof.</s></p>
<p><s id="s186">" As soothed by the venerable shaeds, and the view of a more venerable ruin, we rested opposite to the eastern window of the choir, where once the high altar stood, and with five other alters, assisted the religious pomp of the scene, the images and the manner of times that were past, rose to reflection.</s> <s id="s187">The midnight procession of monks, clothed in white, and bearing lighted tapers, appeared to the" mind's eye" issuing to the choir through the very door-case by which such processions were wont to pass from the cloisters to perform the matin service, when, at the moment of their entering the church, the deep chant-ing of voices was heard, and the organ swelled a so-lemn peal.</s> <s id="s188">To Fancy, the strain still echoed feebly along the arcades, and died in the breeze among the woods, the rustling leaves mingling with the close.</s> <s id="s189">It was easy to image the abbot and the officiating priests, seated beneath the richly fretted canopy of the four stalls, that still remain entire in the southern wall, and high over which is now perched a solitary yew-tree, a black funereal memento to the living of those who once sat below.</s></p>
<p><s id="s190">" If a quadrangular court on the west side of the church, 334 feet long, and 102 feet wide, little ves-tige now appears, except the foundation of a range of cloisters, that formed its western boundary, and under the shade of which the monks, on days of high solemnity, passed in their customary procession round the court.</s> <s id="s191">What was the belfry is now a huge mass of detached ruin, picturesque from the loftiness of its shattered arches, and the high inequalities of the ground within them, where the tower that once crowned this building, having fallen, lies in vast frag-ments, now covered with earth and grass, and no lon-ger distinguishable but by the hillock they form.</s></p>
<p><s id="s192">" The school-house, a heavy structure, attached to the boundary wall on the south, is nearly entire, and the walls, particularly of the portal, are of enormous thickness; but, here and there, a chasm discloses the staircases, that wind within them to the chambers above.</s> <s id="s193">The school-room below shews only a stone bench, that extends round the walls, and a low stone pillar in the eastern corner, on which the teacher's pulpit was formerly fixed.</s> <s id="s194">The lofty vault-ed roof is scarcely distinguishable, by the dusky light admitted through one or two narrow windows, plac-ed high from the ground, perhaps for the purpose of confining the scholar's attention to his book.</s></p>
<p><s id="s195">" This once magnificent abbey was dedicated to St. Mary, and received a colony of monks from the monastery of <enamex sw="w35103" long="6.21667" lat="48.35" type="other" gazref="unlock:4526569" name="Savigny" conf="0.4704821665">Savigny</enamex>, in <enamex sw="w35115" long="-0.65" lat="51.25" type="other" gazref="unlock:4565845" name="Normandy" conf="1">Normandy</enamex>, who were called grey monks, from their dress of that colour, till they became Cirstercians, and with the severe rules of St. Bernard, adopted a white habit, which they retained till the dissolution of monastic orders in En Gland.</s> <s id="s196">The original rules of St. Bernard partook, in several instances, of the austerities of those of <enamex sw="w35451" long="-74.9790574" lat="40.1303878" type="other" gazref="unlock:7936970" name="La Trappe" conf="0.9800765297">La Trappe</enamex>, and the society did not very readily relin-quish the milder laws of St. Benedict, for the new rigours imposed upon them by the parent monas-tery of <enamex sw="w35610" long="6.21667" lat="48.35" type="other" gazref="unlock:4526569" name="Savigny" conf="0.4704821665">Savigny</enamex>.</s> <s id="s197">They were forbidden to taste flesh, except when ill, and even eggs, butter, cheese, and milk, but on extraordinary occasions; and denied even the use of linen and fur.</s> <s id="s198">The monks were di-vided into two classes, to which separate departments belonged.</s> <s id="s199">Those who attended the choir slept upon straw, in their usual habits, from which at midnight they rose and passed into the church, where they continued their hymns during the short remainder of the night.</s> <s id="s200">After this first mass, having publicly confessed themselves, they retired to their cells, and the day was employed in spiritual exercises, and in copying or illuminating manuscripts.</s> <s id="s201">An unbroken silence was observed, except when after dinner they withdrew in the Locutorium, where for an hour they were permitted the common privileges of social beings.</s> <s id="s202">This class was confiend to the boundary wall, except that on some particular days the mem-bers of it were allowed to walk in parties beyond it, for exercise and amusement; but they were seldom permitted either to receive to pay visits.</s> <s id="s203">Like the monks of <enamex sw="w36681" long="-74.9790574" lat="40.1303878" type="other" gazref="unlock:7936970" name="La Trappe" conf="0.9800765297">La Trappe</enamex>, however, they were distin-guished for extensive charities, probably consisting of such meat, offal,&amp; c.</s> <s id="s204">which they could not otherwise dispose of; hence poor travellers were so scru-polously entertained at the abbey, that it was not till the dissolution that an inn was thought necessary in this part of <enamex sw="w36996" long="-3.205728845294711" lat="54.27695240936971" type="ppl" gazref="unlock:11089765" name="Broughton in Furness" conf="2.6">Furness</enamex>, when one was opened for the accommodation of people of buisness, of which there were few or none before.</s></p>
<p><s id="s205">" This was the second house in <enamex  sw="w37140" name="Large admin unit">England</enamex> that receiv-ed the Bernardine rules, the most rigorous of which, however, were dispensed with in 1485 by Sixtus Iv, when among other indulgences, the whole order was allowed to taste meat on three days of the week.</s> <s id="s206">With the rules of St. Benedict the monks had ex - changed the grey habit for a white cassock, with a white caul and scapulary.</s> <s id="s207">But their choir dress was either white or grey, with caul and scapulary of the same, and a girdle of black wool; over that a mozet, or hood, and a rochet.</s> <s id="s208">When they went abroad, they wore a caul and full black hood.</s></p>
<p><s id="s209">" The deep forest that once surrounded the abbey and overspread all <enamex sw="w37772" long="-3.205728845294711" lat="54.27695240936971" type="ppl" gazref="unlock:11089765" name="Broughton in Furness" conf="2.6">Furness</enamex>, contributed, with its in-sulated situation, on a neck of land running out into the sea, to secure it from the depredations of the Scots, who were continually committing hostilities on the borders.</s> <s id="s210">On a summit over the abbey are the remains of a beacon or watch-tower, raised by the society for their further security.</s> <s id="s211">It commands extensive views over Low <enamex sw="w38136" long="-3.205728845294711" lat="54.27695240936971" type="ppl" gazref="unlock:11089765" name="Broughton in Furness" conf="2.6">Furness</enamex>, and the bay of the sea immediately beneath; looking forward to the town and castle of <enamex sw="w38231" long="-2.801902525771824" lat="54.04660667916625" type="ppl" gazref="unlock:11190914" name="Lancaster" conf="3.134718443">Lancaster</enamex>, appearing faintly on the opposite coast; on the south to the isles of <enamex sw="w38312" long="69.56722000000001" lat="31.68417" type="other" gazref="unlock:3212162" name="Laghri Wāl Burj" conf="0.4083089142">Wal</enamex> <enamex sw="w38316" long="-75.5904721" lat="44.020623" type="other" gazref="unlock:7869102" name="Ney Hill" conf="0.6072411873">Ney</enamex>, Foudrey, and their numerous islets, on one of which stands <enamex sw="w38380" long="-4.692535773887674" lat="54.22593372544603" type="fac" gazref="unlock:11241717" name="Peel Castle" conf="0.8141282301">Peel Castle</enamex>; and on the north to the mountains of <enamex sw="w38430" long="-0.7500418347804688" lat="51.63318409360285" type="ppl" gazref="unlock:11172633" name="High Wycombe" conf="1.6">High</enamex> <enamex sw="w38435" long="-3.205728845294711" lat="54.27695240936971" type="ppl" gazref="unlock:11089765" name="Broughton in Furness" conf="2.6">Furness</enamex> and <enamex sw="w38447" long="-2.029395714329929" lat="54.10128439740299" type="ppl" gazref="unlock:36725" name="Conistone" conf="1.58367356">Conistone</enamex>, rising in a grand amphitheatre round this inlet of the Irish Channel.</s></p>
<p><s id="s212">From <enamex sw="w38533" long="-3.216851573405111" lat="54.13301596800804" type="ppl" gazref="unlock:11167607" name="Hawcoat" conf="2.6">Hawcoat</enamex>, a few miles to the west of Fur Ness, the view is still more extensive, whence, in a clear day, the whole length of <enamex sw="w38657" long="-1.500309168183582" lat="54.64543028105785" type="civil" gazref="unlock:13372576" name="Bradbury and the Isle CP" conf="1.4">the Isle</enamex> of Man may be seen, with a part of <enamex sw="w38701" long="-74.8082223" lat="39.0212242" type="other" gazref="unlock:7250031" name="Anglesea Island" conf="0.6273018297">Anglesea</enamex>, and the mountains of <enamex sw="w38732" long="-3.51036" lat="54.45165" type="other" gazref="unlock:5825239" name="Caernarvon Castle" conf="2">Caernarvon</enamex>, <enamex sw="w38744" long="-3.9166667" lat="52.8333333" type="other" gazref="unlock:4572105" name="Gwynedd" conf="1.203880077">Merionethshire</enamex>, <enamex  sw="w38760" name="Large admin unit">Derbyshire</enamex>, and <enamex  sw="w38776" name="Large admin unit">Flintshire</enamex>, shadowing the opposite sides of the horizon of the channel.</s></p>
<p><s id="s213">The country to the north west of <enamex sw="w38881" long="-3.177980552513582" lat="54.15480048261493" type="ppl" gazref="unlock:11514" name="Dalton-In-Furness" conf="2.6">Dalton</enamex> is plea-santly diversified, and is crossed by the ancient road into <enamex  sw="w38956" name="Large admin unit">Cumberland</enamex>, which ascending into the market place at <enamex sw="w39009" long="-3.177980552513582" lat="54.15480048261493" type="ppl" gazref="unlock:11514" name="Dalton-In-Furness" conf="2.6">Dalton</enamex>, traverses the rocky eminence above the town; then winds across a narrow vale to St. Goldmire, proceeds to Roanhead, and over <enamex sw="w39142" long="-3.236709373359921" lat="54.28562759750553" type="ppl" gazref="unlock:11133272" name="Duddon Bridge" conf="2.6">Duddon</enamex> sands.</s> <s id="s214">On the side of a pleasant vale, about three miles and a half to the south of <enamex sw="w39233" long="-3.177980552513582" lat="54.15480048261493" type="ppl" gazref="unlock:11514" name="Dalton-In-Furness" conf="2.6">Dalton</enamex>, we come to the ruins of <enamex sw="w39265" long="-3.125034079844071" lat="54.13390909437263" type="fac" gazref="unlock:11153846" name="Gleaston Castle" conf="2.2">Gleaston Castle</enamex>, the ancient residence of the lords of <enamex sw="w39320" long="-3.097335909975492" lat="54.13101406418629" type="ppl" gazref="unlock:11854" name="Aldingham" conf="2.6">Aldingham</enamex>.</s> <s id="s215">From <enamex sw="w39336" long="-3.177980552513582" lat="54.15480048261493" type="ppl" gazref="unlock:11514" name="Dalton-In-Furness" conf="2.6">Dalton</enamex> to <enamex sw="w39346" long="-3.135938541934887" lat="54.12823331776305" type="ppl" gazref="unlock:40154" name="Gleaston" conf="2.6">Gleaston</enamex> is a pleasant ride of four miles.</s> <s id="s216"><enamex sw="w39389" long="-3.151121199920413" lat="54.12519918464873" type="ppl" gazref="unlock:34663" name="Dendron" conf="2.6">Dendron</enamex>, the next place, two miles and a half from <enamex sw="w39440" long="-3.177980552513582" lat="54.15480048261493" type="ppl" gazref="unlock:11514" name="Dalton-In-Furness" conf="2.6">Dalton</enamex>, is shaded with trees; on the sea shore, two or three miles from <enamex sw="w39512" long="-3.135938541934887" lat="54.12823331776305" type="ppl" gazref="unlock:40154" name="Gleaston" conf="2.6">Gleaston</enamex>, is <enamex sw="w39525" long="-3.097335909975492" lat="54.13101406418629" type="ppl" gazref="unlock:11854" name="Aldingham" conf="2.6">Aldingham</enamex>.</s> <s id="s217">Here stood <enamex sw="w39547" long="-3.0986" lat="54.1301" type="manual update" gazref="Geoname_ID_2657532" name="Aldingham" conf="99992">Aldingham Hall</enamex>, the residence of the <enamex  sw="w39584" name="Not a placename">Fleming</enamex> family.</s> <s id="s218">On the banks of <enamex sw="w39616" long="-3.117019596172535" lat="54.16032156807351" type="water" gazref="unlock:8797027" name="Urswick Tarn Tarn" conf="2.4">Urswick Tarn</enamex> stand the church and villages of <enamex sw="w39662" long="-3.1185" lat="54.4576" type="manual_update"  gazref="unlock:11191353" name="Langdale Pikes" conf="99991">Great and Little</enamex> Urswick.</s> <s id="s219"><enamex sw="w39688" long="-3.102066835" lat="54.18633195" type="manual update" gazref="ZZSH00090" name="Swarthmoor Hall" conf="99992">Swartmoor</enamex> Hall, be-tween Urswick and <enamex sw="w39725" long="-3.081393270948825" lat="54.19093311473023" type="ppl" gazref="unlock:10880" name="Ulverston" conf="2.6">Ulverston</enamex>, was the residence of George Fox, the founder of the Society of Friends.</s></p>
<p><s id="s220">The road from <enamex sw="w39822" long="-2.628155075629303" lat="51.60218710410136" type="other" gazref="unlock:11159328" name="Great Ulverstone" conf="0.9817574702">Ulverstone</enamex> by <enamex sw="w39836" long="-3.060088511" lat="54.24063568" type="manual_update"  gazref="ZZSH00218" name="Penny Bridge" conf="99991">Penny Bridge</enamex>, to <enamex sw="w39853" long="-3.069150080092114" lat="54.34116196598502" type="water" gazref="unlock:11115206" name="Coniston Water" conf="2.4">Coniston Water</enamex>, though it has not the advantage of distant prospects like those on the <enamex sw="w39940" long="-3.082642082112015" lat="54.26913154387659" type="ppl" gazref="unlock:11209124" name="Lowick" conf="2.6">Lowick</enamex> road, has, nevertheless, many charms.</s> <s id="s221">From <enamex sw="w39990" long="-3.060088511" lat="54.24063568" type="manual_update"  gazref="ZZSH00218" name="Penny Bridge" conf="99991">Penny Bridge</enamex> there is, on each side of the <enamex sw="w40033" long="-3.082877682249045" lat="54.27811824030515" type="water" gazref="unlock:11270159" name="River Crake" conf="2.4">River Crake</enamex>, a pretty road to <enamex sw="w40063" long="-3.069150080092114" lat="54.34116196598502" type="water" gazref="unlock:11115206" name="Coniston Water" conf="2.4">Coniston Water</enamex>; that on the western side is the principal.</s> <s id="s222"><enamex sw="w40122" long="-3.069150080092114" lat="54.34116196598502" type="water" gazref="unlock:11115206" name="Coniston Water" conf="2.4">Coniston Water</enamex> is six miles in length, and its greatest breadth three quarters of a mile.</s> <s id="s223">The carriage road that encloses it is often on the margin, and scarcely ever a mile from it.</s> <s id="s224">The views on each side of this lake are interesting by their variety and beauty.</s> <s id="s225">From West's station the road ascends rather steeply from the margin of the lake and soon passes Coniston Bank.</s> <s id="s226">About three quarters of a mile from the inn, the <enamex sw="w40546" long="-3.023901654228874" lat="54.37750890240144" type="ppl" gazref="unlock:11167814" name="Hawkshead Hill" conf="2.6">Hawkshead</enamex> and <enamex sw="w40560" long="-3.071790052749298" lat="54.36868891187336" type="ppl" gazref="unlock:25643" name="Coniston" conf="3.1">Coniston</enamex> road leaves that to <enamex sw="w40589" long="-3.071790052749298" lat="54.36868891187336" type="ppl" gazref="unlock:25643" name="Coniston" conf="3.1">Coniston</enamex>; but <enamex sw="w40603" long="-3.054459688128489" lat="54.3682572295828" type="fac" gazref="unlock:11298723" name="Tent Lodge" conf="2.2">Tent Lodge</enamex>, the seat of George Smith, Esq. soon presents itself on the left.</s> <s id="s227">From the back grounds of this house, the slate quar-ry is seen about a quarter of a mile distant.</s> <s id="s228">From <enamex sw="w40783" long="-3.054459688128489" lat="54.3682572295828" type="fac" gazref="unlock:11298723" name="Tent Lodge" conf="2.2">Tent Lodge</enamex> to the inn, <enamex sw="w40806" name="Waterhead house">Waterhead house</enamex>, the seat of Michael <enamex sw="w40843" long="-2.113103989239713" lat="53.50988388406682" type="ppl" gazref="unlock:11189303" name="Knott Lanes" conf="1.6">Knott</enamex>, Esq. is occasionally seen.</s> <s id="s229">The new inn at <enamex sw="w40892" long="-2.963375971597467" lat="54.42294965090946" type="ppl" gazref="unlock:11314358" name="Waterhead" conf="2.6">Waterhead</enamex> affords good entertainment.</s> <s id="s230">Char, though only in high season during the winter months, is, nevertheless, kept in coops for the ac-commodation of strangers.</s> <s id="s231">Boats are let by Mr. Whittle for the use of tourists; the house adjoins the road, and this is near the lake; the grandest scene is about two miles from the head and from the mid-dle.</s> <s id="s232">Looking towards the mountains, the lake spreads itself into a noble expanse of transparent water, and bursts into a bay on each side, bordered with verdant meadows and enclosed with a variety of grounds.</s></p>
<p><s id="s233">The prevailing character of <enamex sw="w41473" long="-3.0765" lat="54.3361" type="manual_update"  gazref="Geoname_ID_2653454" name="Coniston Water" conf="99991">Coniston Lake</enamex> is the romantic; and this character gives such scope to the imagination, and where it is prominent, the beauty of the landscape must be supreme.</s> <s id="s234">The small island covered with shrubs that rises in the centre, adds to its picturesque effect, which is increased by the black peak of <enamex sw="w41767" long="-3.104151401188731" lat="54.33836116242543" type="ppl" gazref="unlock:29871" name="Torver" conf="2.6">Torver</enamex> and <enamex sw="w41778" long="-3.07188" lat="54.35783" type="other" gazref="unlock:5826053" name="Coniston Hall" conf="2">Coniston Hall</enamex>, a grey ivied man-sion.</s> <s id="s235">Nothing can be more delightful that the na-vigation of this lake.</s> <s id="s236">Nor is a ride round its shores less attractive.</s> <s id="s237">Farther down is a single cottage on the lake's brink, screened by a thick copse that rises up the bank.</s> <s id="s238">Behind these are a range of rug-ged rocks, in a dark semi-circle, enclosed by the Co Uiston Fells and the rocks of <enamex sw="w42149" long="-3.104151401188731" lat="54.33836116242543" type="ppl" gazref="unlock:29871" name="Torver" conf="2.6">Torver</enamex>, huge, black, and stupendous; while the unexplored mountains of Cove, <enamex sw="w42226" name="Hydal Head">Hydal Head</enamex>, and others without a name, over-top the whole.</s> <s id="s239">Persons who visit these romantic regions may be satisfied with learning, that the horses are sure footed and easy, the guides civil, attentive, and sober, and the inns clean, comfortable, and rea-sonable.</s></p>
<p><s id="s240">Some years ago, a few lines appeared in the public prints, said to have been presented by Mr. Southey to a guide who conducted him through some passes in <enamex  sw="w42644" name="Large admin unit">Switzerland</enamex>, and who, on leaving him, requested a character.</s> <s id="s241">Since that time, with a small alteration, they have been adapted to a guide belonging to one of our own lakes, as follows: -</s></p>
<p><s id="s242">Buy my button, this <enamex  sw="w42849" name="Not a placename">Hutton</enamex> Is an excellent guide; A horseman, a footman, a boatman beside, a Geologician, a Metaphysician, who searches how causes proceed, A system inventer, an experimenter He'll raise Epemedium for seed.</s> </p>
<p><s id="s243">Each rock and each dell, he knows it full well, The minerals and fossils therein; Each mountain and fountain, the takes and the brakes, Every town every village and inn.</s> <s id="s244">Take him for your guide, he has often been tried, And was always found useful, when needed, In fair or foul weather you may travel together, And shake hands at parting as we did.</s></p>
<p><s id="s245">A neat gothic residence has lately been erected near the head of <enamex sw="w43467" long="-3.069150080092114" lat="54.34116196598502" type="water" gazref="unlock:11115206" name="Coniston Water" conf="2.4">Coniston Water</enamex>, by a gentleman from <enamex sw="w43503" long="-2.568825341456748" lat="51.47659389119539" type="ppl" gazref="unlock:11087503" name="Bristol" conf="2.316703417">Bristol</enamex>.</s> <s id="s246">The architecture much resembles that of <enamex sw="w43552" long="-2.8116" lat="54.0367" type="manual update" gazref="ZZSH00139" name="Aldcliffe Hall" conf="99992">Aldcliff</enamex> Hall.</s> <s id="s247">At the head of the lake some of the mountains of <enamex sw="w43616" long="-3.071790052749298" lat="54.36868891187336" type="ppl" gazref="unlock:25643" name="Coniston" conf="3.1">Coniston</enamex>, <enamex sw="w43626" long="-3.071689835487597" lat="54.38230622281267" type="water" gazref="unlock:8774875" name="Yewdale Beck" conf="2.4">Yewdale</enamex>, and Tilberthwaite, locally brown, grey, and purple, are softened down into the most harmonious views, and beyond them are <enamex sw="w43757" long="-2.98206973035289" lat="54.44823197501312" type="ppl" gazref="unlock:15013" name="Rydal" conf="2.6">Rydal</enamex>, <enamex sw="w43764" long="-3.0252" lat="54.4584" type="manual_update"  gazref="Geoname_ID_2648201" name="Grasmere" conf="99991">Grassmere</enamex>, and <enamex sw="w43779" long="-3.060646544049678" lat="54.54323368129527" type="civil" gazref="unlock:13403099" name="St. John's Castlerigg and Wythburn CP" conf="2.4">Wythburn</enamex>, which from their great distance frequently mix with the azure of the heavens above them; but, between the high lands and the lake at its head, the eye may discover in little white and grey specks, various habitations sparkling from amongst the trees.</s> <s id="s248">Among the dis-tant mountains, <enamex sw="w44070" long="-2.99223" lat="54.49726" type="other" gazref="unlock:4574128" name="Fairfield" conf="2">Fairfield</enamex> and <enamex sw="w44084" long="-3.043402327204126" lat="54.53913510713601" type="water" gazref="unlock:11169754" name="Helvellyn Gill" conf="2.4">Helvellyn</enamex> are the prin-cipal.</s></p>
<p><s id="s249">At Oxen Houses the road leaves <enamex sw="w44145" long="-3.0765" lat="54.3361" type="manual_update"  gazref="Geoname_ID_2653454" name="Coniston Water" conf="99991">Coniston Lake</enamex>, after which, for a considerable distance it only ap-pears in retrospect, southward, and towards Nib <enamex sw="w44260" long="-3.202329943005574" lat="54.16012922418708" type="ppl" gazref="unlock:11300762" name="Thwaite Flat" conf="2.6">Thwaite</enamex>.</s> <s id="s250">At <enamex sw="w44272" long="-3.104151401188731" lat="54.33836116242543" type="ppl" gazref="unlock:29871" name="Torver" conf="2.6">Torver</enamex>, the traveller will join the public road from <enamex sw="w44325" long="-3" lat="53.16667" type="other" gazref="unlock:4578884" name="Broughton" conf="1">Broughton</enamex> to <enamex sw="w44338" long="-2.959272920560253" lat="54.43199742280473" type="ppl" gazref="unlock:11255" name="Ambleside" conf="2.6">Ambleside</enamex>.</s> <s id="s251">from <enamex sw="w44354" long="-3.104151401188731" lat="54.33836116242543" type="ppl" gazref="unlock:29871" name="Torver" conf="2.6">Torver</enamex> to <enamex sw="w44364" long="-3.071790052749298" lat="54.36868891187336" type="ppl" gazref="unlock:25643" name="Coniston" conf="3.1">Coniston</enamex>, the mountains are occasionally shut out by intervening pastures and meadow grounds, inter-spersed with farm-houses and cottages, till he arrives at the bridge and church of <enamex sw="w44547" long="-3.071790052749298" lat="54.36868891187336" type="ppl" gazref="unlock:25643" name="Coniston" conf="3.1">Coniston</enamex>, near which there is an excellent public house.</s> <s id="s252"><enamex sw="w44604" long="-3.07188" lat="54.35783" type="other" gazref="unlock:5826053" name="Coniston Hall" conf="2.5">Coniston Hall</enamex> stands on the margin of the lake, about a mile from the church, on the right hand.</s> <s id="s253">This noble ruin has been spoiled by severing the projecting wings from the main body of the building; the chambers of this ancient hall are now used as depositories for corn.</s></p>
<p><s id="s254">A peep of the lake on the right, carries the eye nearly to its head, in a succession of pretty bays; and the fells of Yewdale form an interesting background to the whole.</s></p>
<p><s id="s255">About half way between <enamex sw="w45070" long="-3.071790052749298" lat="54.36868891187336" type="ppl" gazref="unlock:25643" name="Coniston" conf="3.1">Coniston</enamex> church and the inn on the left, we come to <enamex sw="w45122" long="-3.202329943005574" lat="54.16012922418708" type="ppl" gazref="unlock:11300762" name="Thwaite Flat" conf="2.6">Thwaite</enamex> under the brow of a venerable wood; this was the residence of the late David <enamex sw="w45207" long="-2.616" lat="54.2166" type="manual_update"  gazref="unlock:13402946" name="Kirby Lonsdale" conf="99991">Kirkby</enamex>, Esq.</s> <s id="s256">But to return to <enamex sw="w45237" long="-3.082642082112015" lat="54.26913154387659" type="ppl" gazref="unlock:11209126" name="Lowick Bridge" conf="2.6">Lowick bridge</enamex>, in order to conduct the tourist up to the east-ern side of <enamex sw="w45311" long="-3.069150080092114" lat="54.34116196598502" type="water" gazref="unlock:11115206" name="Coniston Water" conf="2.4">Coniston Water</enamex>: Mr. West says, a little above the village of <enamex sw="w45372" long="-3.083349270052798" lat="54.29609159078057" type="ppl" gazref="unlock:11172194" name="High Nibthwaite" conf="2.6">Nibthwaite</enamex>, the lake opens in full view.</s> <s id="s257">Two promontories, however, project a great way into it.</s> <s id="s258">A house may also be seen on the crown of a rock, covered with ancient trees, that presents a most romantic appearance.</s></p>
<p><s id="s259">The grand cluster of <enamex  sw="w45609" name="Large admin unit">Lancashire mountains</enamex>, pro-bably covering an horizontal area of thirty square miles, is joined by those of <enamex  sw="w45715" name="Large admin unit">Cumberland</enamex> and <enamex  sw="w45730" name="Large admin unit">West Moreland</enamex>, five or six miles west, and north of the upper part of <enamex sw="w45800" long="-3.0765" lat="54.3361" type="manual_update"  gazref="Geoname_ID_2653454" name="Coniston Water" conf="99991">Coniston Lake</enamex>.</s> <s id="s260">From <enamex sw="w45820" long="-3.071790052749298" lat="54.36868891187336" type="ppl" gazref="unlock:25643" name="Coniston" conf="3.1">Coniston</enamex> <enamex sw="w45829" long="-2.963375971597467" lat="54.42294965090946" type="ppl" gazref="unlock:11314358" name="Waterhead" conf="2.6">Waterhead</enamex>, <enamex sw="w45840" long="-3.07188" lat="54.35783" type="other" gazref="unlock:5826053" name="Coniston Hall" conf="2.5">Coniston Hall</enamex> is a fine object; the <enamex sw="w45876" long="-3.1221" lat="54.3704" type="manual_update"  gazref="unlock:4565407" name="Coniston Old Man" conf="99991">Man Mountain</enamex>, the Carro, and Enfoot, close this admirable scene, which is made much more interesting after heavy showers of rain, by the variety of sparkling water-falls that issue from the fissures of the mountains.</s></p>
<p><s id="s261">Excursion Iii.</s>
</p>
