<?xml version="1.0" encoding="UTF-8"?><document>

<text id="1890_a"><p><s id="s1">Holiday Studies Of Wordsworth By Rivers, Woods And Alps.</s> <s id="s2">The <enamex sw="w73" long="-2.332443597996386" lat="54.12123738302796" type="ppl" gazref="unlock:26638" name="Wharfe" conf="1.50712431">Wharfe</enamex>, The <enamex sw="w85" long="-3.230911816118457" lat="54.2820732335677" type="ppl" gazref="unlock:16538" name="Duddon Bridge" conf="2.6">Duddon</enamex>, And The <enamex sw="w101" name="Stelvio Pass">Stelvio Pass</enamex>.</s> </p><p><s id="s3">By Rev. F. A. Malleson, M.A., Vicar Of <enamex sw="w154" long="-2.73333" lat="53.81667" type="other" gazref="unlock:4578882" name="Broughton" conf="1">Broughton</enamex> In-Furness, Author Of" Jesus Christ, His Life And Work"," Acts And Epistles Of St. Paul;" Editor Of" Ruskin's Letters To The Clergy On The Lord's Prayer," Etc. Etc.</s></p>
<p><s id="s4">Cassel&amp; Company, Limited: <enamex sw="w355" long="-0.1193526387214661" lat="51.47267150878906" type="ppla" gazref="unlock:14132302" name="London" conf="2.522783976">London</enamex>, <enamex sw="w363" long="2.3488000" lat="48.8534100" type="pplc" gazref="geonames:2988507" name="Paris" conf="2.179369204">Paris</enamex>&amp; <enamex sw="w371" long="145.0344009399414" lat="-37.80185699462891" type="ppla" gazref="unlock:14133269" name="Melbourne" conf="2.014726211">Melbourne</enamex>.</s></p>
<p><s id="s5">1890.</s></p>
<p><s id="s6">Dedication.</s> </p><p><s id="s7">Not alone as homage due to distinguished rank, but much more as a poor( would it were a rich!) tribute to conspicuous, yet modest civic, social and domestic, virtue, and a lofty and dignified patriotism as noble and generous as it is affecting, I dedicate( by permission) to</s></p>
<p><s id="s8">William, Seventh Duke Of <enamex  sw="w700" name="Large admin unit">Devonshire ,</enamex> K.G., F.R. s., etc.,</s></p>
<p><s id="s9">this feeble attempt( associated with other earlier writings) to portray the natural beauties and to record some of the historic memories of one of the ancestral homes and sacred fanes of <enamex  sw="w919" name="Large admin unit">England</enamex>.</s></p>
<p><s id="s10">F. A. Malleson.</s></p>
<p><s id="s11">Preface.</s>
</p><p><s id="s12">The present Volume is a small collection of papers written at rather distant intervals, of which the partiality of kind friends has encouraged me to believe that they would not willingly allow them to be lost.</s></p>
<p><s id="s13">They have therefore been gathered together, by courteous permission of the editors, out of the magazines in which they originally appeared, with the exception of the paper on" <enamex sw="w1339" long="-1.890369138166143" lat="53.98280351521667" type="ppl" gazref="unlock:12308" name="Bolton Abbey" conf="1.518233873">Bolton Abbey</enamex>," written in 1889, which has not been printed before.</s></p>
<p><s id="s14">The <enamex  sw="w1410" name="Large admin unit">Westmorland</enamex> Girl died in my own parish in 1872, and the paper so entitled appeared in Sunday at Home in 1873.</s> <s id="s15">" Wordsworth and the <enamex sw="w1540" long="-3.230911816118457" lat="54.2820732335677" type="ppl" gazref="unlock:16538" name="Duddon Bridge" conf="2.6">Duddon</enamex>"-- the result of a couple of days spent in solitude, pencil in hand, in the beautiful <enamex sw="w1634" long="-3.193494016" lat="54.37016091" type="manual update" gazref="ZZSH00146" name="Duddon Valley" conf="99992">Duddon Valley</enamex>-- appeared in Good Words in 1883.</s> <s id="s16">Considerable additions, however, have been made since then.</s> <s id="s17">These three pieces are therefore more or less illustrations of the life and works of a great Poet Laureate.</s> <s id="s18">The" Swiss Notes" and the" <enamex sw="w1878" name="Stelvio Pass">Stelvio Pass</enamex>" were written during a sojourn of three weeks at the Baths of <enamex sw="w1953" long="10.37206" lat="46.46841" type="other" gazref="unlock:14209896" name="Aquae Bormiae" conf="0.3251555131">Bormio</enamex>, as English chaplain, in Sept., 1883, and, like the <enamex sw="w2012" long="-3.230911816118457" lat="54.2820732335677" type="ppl" gazref="unlock:16538" name="Duddon Bridge" conf="2.6">Duddon</enamex> paper, the latter was entirely written in pencil on the spot, with those grand Alpine scenes before my eyes-- even when I could scarcely hold my pencil for the cold at an elevation of close upon ten thousand feet.</s> <s id="s19">The last two papers have appeared in Anglo <enamex  sw="w2277" name="Large admin unit">Austria</enamex>, a well-conducted magazine, first published in January, 1890, at <enamex sw="w2351" long="-4.619909551440918" lat="56.55522084530519" type="water" gazref="unlock:8779809" name="Allt Meran" conf="0.8756974039">Meran</enamex> in <enamex sw="w2360" long="-76.84913830000001" lat="38.9337225" type="other" gazref="unlock:7121566" name="Tyrol Estates" conf="0.7945942807">Tyrol</enamex>.</s></p>
<p><s id="s20">The grateful duty remains of returning sincerest thanks to Lady Louisa Egerton for her most kind and able assistance in the historical portion of the paper on <enamex sw="w2526" long="-1.890369138166143" lat="53.98280351521667" type="ppl" gazref="unlock:12308" name="Bolton Abbey" conf="1.518233873">Bolton Abbey</enamex>, without which assistance the author would scarcely have ventured upon this undertaking; also to the Rev. A. P. Hows, Rector of <enamex sw="w2667" long="-1.890369138166143" lat="53.98280351521667" type="ppl" gazref="unlock:12308" name="Bolton Abbey" conf="1.518233873">Bolton Abbey</enamex>, whose interesting guide book has rendered valuable assistance.</s></p>
<p><s id="s21">Wordsworth's" <enamex  sw="w2758" name="Large admin unit">Westmorland</enamex> Girl."</s>
</p>
<p><s id="s22"><enamex sw="w2778" long="-2.73333" lat="53.81667" type="other" gazref="unlock:4578882" name="Broughton" conf="1">Broughton</enamex> In <enamex sw="w2791" long="-3.205728845294711" lat="54.27695240936971" type="ppl" gazref="unlock:11089765" name="Broughton in Furness" conf="2.6">Furness</enamex> and the <enamex sw="w2807" long="-3.230911816118457" lat="54.2820732335677" type="ppl" gazref="unlock:16538" name="Duddon Bridge" conf="2.6">Duddon</enamex>-- Sarah Mackereth," The <enamex  sw="w2839" name="Large admin unit">Westmorland</enamex> Girl"-- Her Beauty and Refinement-- Fading Away-- Unexpected Discovery that she was Wordsworth's Heroine, his" Lamb Deliverer"-- Story of the Deliverance of the Lamb from Drowning-- The Scene by <enamex sw="w3051" long="-3.0216" lat="54.45" type="manual_update"  gazref="Geoname_ID_6956554" name="Grasmere Water" conf="99991">Grasmere Lake</enamex>-- Primitive Times at <enamex sw="w3087" long="-3.020927713122514" lat="54.46105068867795" type="ppl" gazref="unlock:31171" name="Grasmere" conf="2.6">Grasmere</enamex>-- Sarah Tolling the Passing Bell-- Sarah" loved all things great and small"-- Nathaniel Hawthorne at <enamex sw="w3200" long="-3.020927713122514" lat="54.46105068867795" type="ppl" gazref="unlock:31171" name="Grasmere" conf="2.6">Grasmere</enamex>-- Passing Away-- Visited by Angels-- Laid at rest in <enamex sw="w3265" long="-2.73333" lat="53.81667" type="other" gazref="unlock:4578882" name="Broughton" conf="1">Broughton</enamex> Churchyard-- Human Interest needed for the True Enjoyment of Beautiful Scenery.</s></p>
<p><s id="s23">About the month of February, 1872, I received information that a woman in my parish of the humbler class was in a very weak and suffering state.</s> <s id="s24">The distance from the vicarage was but five minutes' walk, and I was soon in her neat little cottage.</s> <s id="s25">Sarah Davies was but a new-comer into the parish.</s> <s id="s26">Her husband had obtained agricultural employment, and he and his wife and two little girls had been settled but a few weeks in a cottage commanding a lovely view, bordering on the Lake country, if not actually part of it.</s> <s id="s27">The cottage stood on a gentle elevation.</s> <s id="s28">Beneath lay the wide and level estuary of the <enamex sw="w3962" long="-3.230911816118457" lat="54.2820732335677" type="ppl" gazref="unlock:16538" name="Duddon Bridge" conf="2.6">Duddon</enamex>, which here spreads into the broad expanse known as the <enamex sw="w4025" long="-3.230911816118457" lat="54.2820732335677" type="ppl" gazref="unlock:16538" name="Duddon Bridge" conf="2.6">Duddon</enamex> Sands.</s> <s id="s29">Northward appears the opening between the two rocky fells of Bleansley Bank and <enamex sw="w4119" long="-3.313787931533084" lat="54.29380151464577" type="mtn" gazref="unlock:11293316" name="Stoneside Hill" conf="2.4">Stoneside</enamex> into the richly-wooded, verdure-clad valley of the <enamex sw="w4180" long="-3.230911816118457" lat="54.2820732335677" type="ppl" gazref="unlock:16538" name="Duddon Bridge" conf="2.6">Duddon</enamex>, our i &gt; great poet's" <enamex sw="w4209" long="-3.230911816118457" lat="54.2820732335677" type="ppl" gazref="unlock:16538" name="Duddon Bridge" conf="2.6">Duddon</enamex>, long-loved <enamex sw="w4228" long="-3.230911816118457" lat="54.2820732335677" type="ppl" gazref="unlock:16538" name="Duddon Bridge" conf="2.6">Duddon</enamex>, child of the clouds."</s> <s id="s30">To the right, nestling and embosomed between low hills, lies, compact and close, the little whitewashed and slate-roofed town of <enamex sw="w4387" long="-2.73333" lat="53.81667" type="other" gazref="unlock:4578882" name="Broughton" conf="1">Broughton</enamex> In-Furness, with its quaint old church-- some of it older than <enamex sw="w4461" long="-3.201549006999698" lat="54.13316968437257" type="fac" gazref="unlock:11148990" name="Furness Abbey" conf="2.2">Furness Abbey</enamex>-- standing amidst green meadows apart from the town, and the single line of railway sweeping past, till lost in the deep rock cutting, which is crowned by the ancient battlements of <enamex sw="w4658" long="-2.73333" lat="53.81667" type="other" gazref="unlock:4578882" name="Broughton" conf="1">Broughton</enamex> Tower.</s> <s id="s31">That noble mountain, <enamex sw="w4696" long="-3.328281786124296" lat="54.26667557117908" type="mtn" gazref="unlock:11078408" name="Black Combe" conf="2.4">Black Combe</enamex>, rises conspicuously before us over the <enamex sw="w4748" long="-3.230911816118457" lat="54.2820732335677" type="ppl" gazref="unlock:16538" name="Duddon Bridge" conf="2.6">Duddon</enamex> Sands at no greater distance than six or seven miles, its gentle slopes and long, sweeping sides contrasting finely with the dark and rugged hollow that descends-- steep, frowning, and inaccessible-- from its majestic summit, and from which it appears to derive its name of <enamex sw="w5031" long="-3.328281786124296" lat="54.26667557117908" type="mtn" gazref="unlock:11078408" name="Black Combe" conf="2.4">Black Combe</enamex>, which connects it with the Welsh Cwms.</s> <s id="s32">Another huge mountain mass rises almost in the same line with <enamex sw="w5145" long="-3.328281786124296" lat="54.26667557117908" type="mtn" gazref="unlock:11078408" name="Black Combe" conf="2.4">Black Combe</enamex>, at a distance from it of some twelve</s></p>
<p><s id="s33">" Or <enamex sw="w5199" long="-3.328281786124296" lat="54.26667557117908" type="mtn" gazref="unlock:11078408" name="Black Combe" conf="2.4">Black Combe</enamex>( dread name, Derived from coulds and storms)."</s></p>
<p><s id="s34">or thirteen miles in the south-west, <enamex sw="w5295" long="-2.73333" lat="53.81667" type="other" gazref="unlock:4578882" name="Broughton" conf="1">Broughton</enamex> lying nearly between the two.</s> <s id="s35">This is <enamex sw="w5343" long="-3.071790052749298" lat="54.36868891187336" type="ppl" gazref="unlock:25643" name="Coniston" conf="2.6">Coniston</enamex> <enamex sw="w5352" long="-3.12208" lat="54.37042" type="other" gazref="unlock:4565407" name="Old Man of Coniston" conf="2">Old Man</enamex>, with its brother heights, the <enamex sw="w5391" long="-3.1371" lat="54.3712" type="manual update" gazref="Geoname_ID_7290418" name="Dow Crag" conf="99992">Dow Crags</enamex> and Walna <enamex sw="w5411" long="-2.629961755372798" lat="53.7869491367909" type="ppl" gazref="unlock:11253825" name="Red Scar" conf="1.545210997">Scar</enamex>, or <enamex sw="w5420" long="-3.161684049383001" lat="54.34929544043917" type="mtn" gazref="unlock:11320936" name="White Pike" conf="2.4">White Pike</enamex>.</s> <s id="s36">The view is bounded at the farthest south by the sea, and by the puffing chimney-stalks of Barrow and <enamex sw="w5534" long="-2.7531" lat="54.6067" type="manual_update"  gazref="Geoname_ID_2656903" name="Askham" conf="99991">Askam</enamex>, and the busy furnaces of <enamex sw="w5566" long="-3.265224525443216" lat="54.21341952914801" type="ppl" gazref="unlock:11219982" name="Millom" conf="2.6">Millom</enamex>, where <enamex sw="w5580" long="-3.25" lat="54.2" type="other" gazref="unlock:4571201" name="Hodbarrow" conf="2">Hodbarrow</enamex> fuses its mineral wealth; to the north, with a fine contrast, Sarah might daily fix her eyes, with a last lingering, fond gaze, upon her native mountains of <enamex sw="w5747" long="-2.980504499805622" lat="54.49471944879589" type="other" gazref="unlock:11275809" name="Rydal Head" conf="2">Rydal Head</enamex>, <enamex sw="w5759" long="-2.99223" lat="54.49726" type="other" gazref="unlock:4574128" name="Fairfield" conf="2">Fairfield</enamex>, and <enamex sw="w5774" long="-2.923380170612523" lat="54.48813982572446" type="water" gazref="unlock:8788152" name="Kirkstone Beck" conf="2.4">Kirkstone</enamex>, rising pale blue in the distance from between the heights that encircle lovely <enamex sw="w5864" long="-3.071790052749298" lat="54.36868891187336" type="ppl" gazref="unlock:25643" name="Coniston" conf="2.6">Coniston</enamex> and <enamex sw="w5877" long="-2.9079" lat="54.376" type="manual_update"  gazref="unlock:10204" name="Windermere" conf="99991">Windermere</enamex>.</s> <s id="s37">But external nature, with all her charms, can only occupy the mind in its leisure hours of quiet peace and meditation.</s> <s id="s38">The visitor of the sick leaves these thoughts at the door when he enters the sick chamber.</s></p>
<p><s id="s39">Sarah was a rather tall woman, past her thirty - seventh year, possessing features of singular delicacy and refinement-- quite enough, indeed, to entitle her to be described as beautiful-- even very beautiful.</s> <s id="s40">Dark hair of raven blackness, always smoothed and parted with the most perfect neatness, shaded a face now transparently thin, pale, and delicate, but once evidently bright with joy and love and animation; eyes deep and dark, with all a wife's and a mother's beaming softness when she spoke of those who were so dear to her, and from whom she knew well she would soon be called to part for this life.</s> <s id="s41">I cannot resist speaking of the singular beauty and refinement of that countenance, chiefly because it reflected the purity and the charity of the heart within.</s></p>
<p><s id="s42">I generally found her lying, in her snow-white garments, in a room where all was of the same snowy whiteness in its perfect cleanliness.</s> <s id="s43">Fair flowers stood in the window; the air of the room was always sweet and pure.</s> <s id="s44">Consumption was rapidly wasting her frame away; and a babe was born of her who seemed as if her own life was to be counted by days rather than by weeks.</s> <s id="s45">But the quiet confidence of her soul in the peace that trust in Jesus alone can give was never once disturbed during her long and severe trial.</s> <s id="s46">In her wonderful calmness and patience she yet asked," Was she patient?"</s> <s id="s47">" Did we think she was impatient?"</s> <s id="s48">No, indeed; it was evident that Jesus was her stay in the darkest hour.</s></p>
<p><s id="s49">How full of the truest hope and consolation is this knowledge, which we gain from experience of the death-beds of those who die in the Lord, that when earth is fading away, its ties loosening day by day, and weakness prostrates the body wholly and the mind in part, yet then is felt, with a reality which nothing earthly can equal, that God is supporting our failing strength; that He gives us to see what mortal eyes in the bustle and business of life can only faintly discern; that the Redeemer then seems to be whispering to our innermost heart:" Fear not, for I am with thee; I have called thee by thy name; thou art Mine.</s> <s id="s50">When thou passest through the waters, I will be with thee; and through the rivers, they shall not overflow thee.</s> <s id="s51">When thou walkest through the fire, thou shalt not be burned; neither shall the flame kindle upon thee.</s> <s id="s52">For I am the Lord thy God, the Holy One of <enamex  sw="w8452" name="Large admin unit">Israel</enamex>, thy Saviour."</s></p>
<p><s id="s53">Of my interviews with Sarah I have no long and interesting conversations to record.</s> <s id="s54">It is very rarely, if ever, that in cottage life one meets with piety that is able to express its feelings in many words.</s> <s id="s55">For the most part, our intercourse consisted of quiet conversations, in which I bore, indeed, the principal part, but for which she supplied the matter by words, few but full of feeling.</s> <s id="s56">Especially, she would frequently assure me of her happiness in leaving all to her Heavenly Father, and her dark eyes would then light up with a more than earthly radiance.</s></p>
<p><s id="s57">Once we were talking of <enamex sw="w9063" long="-3.020927713122514" lat="54.46105068867795" type="ppl" gazref="unlock:31171" name="Grasmere" conf="2.6">Grasmere</enamex>, her native place, when, turning her head quickly towards me, she said," Did you know Mr. Wordsworth, sir?"</s> <s id="s58">I told her that I had only seen him two or three times, but had never spoken to him, and was not acquainted with him.</s> <s id="s59">" I knew him very well, sir," she added;" he was a very nice and kind old gentleman, with white hair, and he used to pat me on the head.</s> <s id="s60">He wrote a poem about me."</s> <s id="s61">" Indeed," said I;" and what is the poem called?"</s> <s id="s62">" It is called' The <enamex  sw="w9529" name="Large admin unit">Westmorland</enamex> Girl,'" she replied," and it was about my getting a lamb out of a beck."</s> <s id="s63">And, as she spoke, her pale, delicate features lighted up with enthusiasm at the remembrance.</s></p>
<p><s id="s64">There had been a heavy fall of rain, she said; the streams were greatly swollen.</s> <s id="s65">A distressed and forsaken lamb had been left on one side of this dividing torrent by its mother, which had strayed away across it.</s> <s id="s66">Trying to follow, it had fallen in, and immediately the hungry waves whirled the poor creature away, and tumbling it over loose stones, and tossing it from bank to bank, would soon have carried it, drowned, into the lake had not little Sarah Mackereth, then only nine years old, plunged boldly in and caught the poor lamb in her little arms.</s> <s id="s67">" We were rolled over and over," said she( suiting the action to the word by making her arms to revolve rapidly round each other);" but I got it safely out at last."</s> <s id="s68">I asked her if she was not frightened and hurt; but she laughed in her quiet, cheerful way, and said," Not at all; and my clothes were soon dry again."</s></p>
<p><s id="s69">The poem in which Wordsworth commemorated this act is not so well known as many others of the poet's works.</s> <s id="s70">It was one of his latest productions, when many collected editions of his works had already been published, and is found in Moxon's Popular Edition( 1869):--</s></p>
<p><s id="s71">" Let who will delight in fable, I shall tell you truth.</s> <s id="s72">A lamb Leapt from this steep bank to follow' Cross the brook its thoughtless dam.</s></p>
<p><s id="s73">" Far and wide, on hill and valley, Rain had fallen, unceasing rain, And the bleating mother's young one Struggled with the flood in vain:</s></p>
<p><s id="s74">" But, as chanced, a cottage maiden( Ten years scarcely had she told) Seeing, plunged into the torrent, Clasped the lamb and kept her hold.</s></p>
<p><s id="s75">" Whirled adown the rocky channel, Sinking, rising, on they go, Peace and rest, as seems, before them Only in the lake below.</s></p>
<p><s id="s76">" Oh! it was a frightful current Whose fierce wrath the girl had braved; Clap your hands with joy, my hearers, Shout in triumph; both are saved."</s></p><p><s id="s77">A few days ago I visited the scene of this courageous deed.</s> <s id="s78">The Mackereths' cottage is called the <enamex sw="w11628" long="-1.765007639613181" lat="53.73443900287647" type="ppl" gazref="unlock:11327837" name="Wyke" conf="1.485310192">Wyke</enamex> Cottage; it stands on the north side of the road that leads from <enamex sw="w11698" long="-3.020927713122514" lat="54.46105068867795" type="ppl" gazref="unlock:31171" name="Grasmere" conf="2.6">Grasmere</enamex> to <enamex sw="w11710" long="-3.051865815747152" lat="54.42093505077031" type="ppl" gazref="unlock:34442" name="Little Langdale" conf="2.6">Langdale</enamex>, about half a mile from the church.</s> <s id="s79">It is a very small, stone-built cottage, with one of those round chimneys which form such a pretty feature of the houses in that district.</s> <s id="s80">A tall yew and a Scotch fir rise very high above it.</s> <s id="s81">Behind rise the shining steeps of <enamex sw="w11981" long="-3.041115952192079" lat="54.44927025558928" type="mtn" gazref="unlock:11284001" name="Silver How" conf="2.4">Silver How</enamex>, from which, down a rocky fell, rich in underwood and ferns and flowers, rushes the noisy and impetuous torrent which had so nearly carried into the lake our little <enamex  sw="w12157" name="Large admin unit">Westmorland</enamex> maiden.</s> <s id="s82">The stream is not wide, but, when full, it is deep, and full of rugged boulders.</s> <s id="s83">Here dwelt the Mackereths-- parish clerks for some generations; but, at an earlier period, one or more of them were" priests."</s> <s id="s84">This is the name still given to the clergyman in these parts by most of the old people; it is doubtless a relic of pre-Reformation times.</s> <s id="s85">In those earlier days, in the Lake district, when a vacancy fell in a living, a successor was not fetched from some unknown distance; some grave and clerkly man from the same dale would serve their turn, who laboured both as minister and schoolmaster, perhaps all in one building-- the parish church.</s> <s id="s86">Such was the origin of Robert Walker, so well known as" Wonderful Walker," for sixty years minister of <enamex sw="w12929" long="-3.187972142" lat="54.35484638" type="manual update" gazref="ZZSH00087" name="Seathwaite Chapel" conf="99992">Seathwaite Chapel</enamex> and parish schoolmaster, and very frequently a day-labourer, working for hire for his own parishioners.</s> <s id="s87">He was born in the little cottage-farm of <enamex sw="w13093" long="-2.984612801849855" lat="54.66546338251215" type="other" gazref="unlock:11309325" name="Undercrag" conf="1.995939445">Undercrag</enamex>, in his own <enamex sw="w13115" long="-3.181453589957629" lat="54.50191128767066" type="ppl" gazref="unlock:11279850" name="Seathwaite" conf="2.6">Seathwaite</enamex>, which is the next parish to the north of this parish of <enamex sw="w13183" long="-2.73333" lat="53.81667" type="other" gazref="unlock:4578882" name="Broughton" conf="1">Broughton</enamex> In-Furness.</s> <s id="s88">It has been remarked to me, by those who have long known them, that there has always been a certain refinement, a <enamex sw="w13319" long="-4.99258216412324" lat="54.99219438715534" type="water" gazref="unlock:8788263" name="Lake Superior" conf="0.9485394757">superior</enamex> nature, that has distinguished the members of the Mackereth family.</s> <s id="s89">They may be truly called" the gentry of the soil"-- noble examples of simple and pure native excellence, owing little to education, little to intercourse with those who move in the higher ranks of life.</s> <s id="s90">They retain the rustic simplicity, they practise the untutored and artless courtesy which we love to imagine, but do not often discover, in the English peasant life.</s></p>
<p> <s id="s91">See the next paper," Wordsworth and the <enamex sw="w13807" long="-3.230911816118457" lat="54.2820732335677" type="ppl" gazref="unlock:16538" name="Duddon Bridge" conf="2.6">Duddon</enamex>."</s></p>
<p><s id="s92">Little Sarah early lost her mother.</s> <s id="s93">To her worthy father she was most devoted.</s> <s id="s94">Her love for him was deep and intense.</s> <s id="s95">No labour was too great to lighten her dear father's toils, or relieve him from attendance upon such of his duties as she was able to fulfil.</s> <s id="s96">Thus, many a time she tolled the church bell for her father; and, at the request of an aged gentleman of <enamex sw="w14181" long="-3.020927713122514" lat="54.46105068867795" type="ppl" gazref="unlock:31171" name="Grasmere" conf="2.6">Grasmere</enamex>, after his death she tolled the passing bell every day for him until his body was committed to the grave.</s> <s id="s97">This was a service in excess of what he had asked, for he had only requested her to toll the bell on the day of his funeral; but her zeal led her to do more.</s> <s id="s98">This circumstance is referred to in the second part of the poem.</s></p>
<p><s id="s99">One other occurrence is mentioned.</s> <s id="s100">So great was her feeling for all living creatures, that she would never endure to see them made to suffer unnecessarily.</s> <s id="s101">A gentleman was fishing in <enamex sw="w14702" long="-3.0216" lat="54.45" type="manual_update"  gazref="Geoname_ID_6956554" name="Grasmere Water" conf="99991">Grasmere Lake</enamex>.</s> <s id="s102">Our little maiden stood by watching or helping.</s> <s id="s103">He does not seem to have gained her confidence, for, having caught a large pike, and cruelly thrusting a stick repeatedly down its throat with a wicked pleasure in its writhing and agony, the brave little creature, with indignation kindling in her lovely countenance, snatched it from him, and flung it far away into the lake, fearless of his anger, careless of the consequences.</s></p>
<p><s id="s104">These little traits of character, the historical accuracy of which I vouch for on the authority of those who knew and loved well the bard and his" little lamb-deliverer," are embodied in the second part of the poem, of which the following are the concluding verses:--</s></p>
<p><s id="s105">" Listen yet awhile;-- with patience Hear the homely truths I tell; She in <enamex sw="w15489" long="-3.020927713122514" lat="54.46105068867795" type="ppl" gazref="unlock:31171" name="Grasmere" conf="2.6">Grasmere</enamex>'s old church steeple Tolled this day the passing bell.</s></p>
<p><s id="s106">" Yes, the wild girl of the mountains To their echoes gave the sound, Notice punctual as the minute, Warning solemn and profound.</s></p>
<p><s id="s107">" She, fulfilling her sire's office, Rang alone the far-heard knell-- Tribute, by her hand, in sorrow, Paid to one who loved her well.</s></p>
<p><s id="s108">" When his spirit was departed, On that service she went forth; Nor will fail the like to render When his corse is laid in earth.</s></p>
<p><s id="s109">" What then wants the child to temper In her breast unruly fire, To control the froward impulse, And restrain the vague desire?</s></p>
<p><s id="s110">" Early a pious training, And a steadfast outward power, Would supplant the weeds, and cherish In their stead each opening flower.</s></p>
<p><s id="s111">" Thus the fearless lamb-deliverer, Woman Grown, meek-hearted, sage, May become a blest example For her sex of every age.</s></p>
<p><s id="s112">" Watchful as a wheeling eagle, Constant as a soaring lark, Should the country need a heroine, She might prove our Maid of Arc.</s></p>
<p><s id="s113">" Leave that thought; and here be uttered Prayer that grace Divine may raise Her humane, courageous spirit Up to heaven, through peaceful ways."</s></p><p><s id="s114">In Nathaniel Hawthorne's" English Note Book" we find that he met at <enamex sw="w16662" long="-3.020927713122514" lat="54.46105068867795" type="ppl" gazref="unlock:31171" name="Grasmere" conf="2.6">Grasmere</enamex> Church with one of the Mackereths, and heard about the poem without being able to call the circumstances of it to mind.</s> <s id="s115">I do not doubt that if he had known more about it, we should have some entertaining gossip on the subject.</s> <s id="s116">The following is his account in 1855:--</s></p>
<p><s id="s117">" I have been again to see Wordsworth's grave, and, finding the door of the church open, we went in.</s> <s id="s118">A woman and little girl were sweeping at the farther end, and the woman came towards us out of the cloud of dust which she had raised. . . . She was a very intelligent-looking person, not of the usual English ruddiness, but rather thin and somewhat pale, though bright of aspect.</s> <s id="s119">Her way of talking was very agreeable.</s> <s id="s120">She inquired if we wished to see Wordsworth's monument, and at once showed it to us-- a slab of white marble fixed against the upper end of the centre row of stone arches, with a pretty long inscription, and a profile bust, in bas-relief, of his aged countenance. . . . The woman said that she had known him very well, and that he had made some verses on a sister of hers.</s> <s id="s121">She repeated the first lines-- something about a lamb-- but neither s-- nor I remembered them."</s></p>
<p><s id="s122">I read the poem to her and her husband one calm summer evening.</s> <s id="s123">He had never heard it; she, I think, not more than once.</s> <s id="s124">Her placid gaze rested on her husband's countenance, to see how it would affect him; for she loved him faithfully.</s> <s id="s125">He was" not one of those rough, wicked men," she once said to me.</s></p>
<p><s id="s126">I feel the more pleasure in bringing this touching poem before a wider circle of thoughtful readers, because it furnishes, as I think, an illustration of a fact grateful to the Christian-- that Wordsworth, in the latter years of his calm, happy, and peaceful life, enjoyed more deeply than in early and middle life the blessedness and peace of a closer walk with God.</s> <s id="s127">Witness, for instance, the solemn stillness and the deep faith in all Divine things that breathes through the" Evening Voluntaries."</s> <s id="s128">Not that at any time his faith and confidence were in any danger of becoming loosed from their moorings, but that in him peculiarly the mellowing flow of years brought with it a surer trust, a deeper realisation of the blessedness of a soul at peace with God, through the Redeemer's merits; so that his peaceful old age was like to what we sometimes witness in the lovely evenings which shed such a richness of glory over his beloved vales-- a sunset without a cloud.</s></p>
<p><s id="s129">Such, too, was Sarah Davies's departure.</s> <s id="s130">The difference between her entrance upon a better world and his consisted in nothing more than the mere power of expression.</s> <s id="s131">In her, no less than in the poet, there was patience under suffering, mingled with joy at the prospect of release from the flesh and heaven opening.</s> <s id="s132">Both knew and felt equally the noble declaration of faith and immortality:" When Thou hadst overcome the sharpness of death, Thou didst open the kingdom of heaven to all believers."</s> <s id="s133">But poor Sarah could only look her firm belief with her eyes, and express it in words few and simple, though strong with all the fulness of her heart.</s></p>
<p><s id="s134">Before me hangs still the set of hymns for the sick and suffering which I had hung by her bedside, and every day the hymn for that day was placed before her.</s> <s id="s135">It lies open at xxix., and she died on the 1st September.</s> <s id="s136">She read them, therefore, up to the last day that she was able.</s> <s id="s137">Great comfort did she receive from these well-chosen hymns.</s></p>
<p><s id="s138">She received at my hands the Holy Communion, with her husband.</s> <s id="s139">There was in her countenance a sweet and holy calm that recalled none of her early animation.</s> <s id="s140">It was the rich, deep glow of heavenly light that kindles in the face of the true believer, and marks unmistakably to the minister of God that here is one sealed for heaven, saved and redeemed from the power of the grave.</s> <s id="s141">What proved to be my last interview with this dear child of God, I did not think would be my last.</s> <s id="s142">Some clerical business took me to <enamex sw="w20603" long="-2.923743724822998" lat="54.89435005187988" type="ppla" gazref="unlock:14127466" name="Carlisle" conf="3.24129204">Carlisle</enamex>, and in my absence she passed gently away-- the gentle, loving spirit returned to Him that gave it.</s></p>
<p><s id="s143">On her last day upon earth her sister entered the room.</s> <s id="s144">Sarah said," Did Davies tell you?"</s> <s id="s145">" Tell me what?"</s> <s id="s146">" Did he really not tell you?</s> <s id="s147">It is very strange.</s> <s id="s148">Well, I have seen angels.</s> <s id="s149">They came to fetch me.</s> <s id="s150">I saw them plainly; I could not be mistaken."</s> <s id="s151">Blessed spirit of the departed, thou knowest now whether it were indeed a vision from heaven!</s></p>
<p><s id="s152">Sarah sleeps in the quiet churchyard of <enamex sw="w21098" long="-2.73333" lat="53.81667" type="other" gazref="unlock:4578882" name="Broughton" conf="1">Broughton</enamex> In-Furness.</s> <s id="s153">The mountains of her native land look down from afar upon her resting-place; the distant murmur of <enamex sw="w21219" long="-3.230911816118457" lat="54.2820732335677" type="ppl" gazref="unlock:16538" name="Duddon Bridge" conf="2.6">Duddon</enamex> may often be heard in deeper contrast to the stillness of the scene.</s> <s id="s154">The prayer of the Christian poet has been heard.</s> <s id="s155">His spirit seemed to her minister to mingle with his own as he bent over her fair but fading countenance in fervent prayer and thanksgiving.</s> <s id="s156">The wayward but brave and loving girl had grown to womanhood.</s> <s id="s157">The country had not called to her for aid, or she would not have been wanting at its call.</s> <s id="s158">No Joan of Arc was she, but one whom it was always a joy and a comfort to see-- a crown to her husband, the glory of her children.</s> <s id="s159">" Her children shall arise and call her blessed; her husband also, and he praiseth her."</s></p>
<p><s id="s160">Tourists will flock still to <enamex sw="w21887" long="-3.020927713122514" lat="54.46105068867795" type="ppl" gazref="unlock:31171" name="Grasmere" conf="2.6">Grasmere</enamex> to stay, or to pass that fairest gem of English scenery, and be delighted, as every one must be who has the faintest touch of a feeling of love and admiration for the lovely creation of God; and many, starting in their walk, with elastic tread and chest expanding with the conscious glow of strength and spirits, for <enamex sw="w22213" long="-3.040660185175728" lat="54.43129711669329" type="ppl" gazref="unlock:11139814" name="Elterwater" conf="2.6">Elterwater</enamex>, <enamex sw="w22225" long="-3.051865815747152" lat="54.42093505077031" type="ppl" gazref="unlock:34442" name="Little Langdale" conf="2.6">Langdale</enamex>, or <enamex sw="w22238" long="-3.071790052749298" lat="54.36868891187336" type="ppl" gazref="unlock:25643" name="Coniston" conf="2.6">Coniston</enamex>, will leave behind that humblest little cottage sheltered at the foot of <enamex sw="w22320" long="-3.041115952192079" lat="54.44927025558928" type="mtn" gazref="unlock:11284001" name="Silver How" conf="2.4">Silver How</enamex>; and will they not now, perhaps, bestow a passing thought on the child that dwelt in that lowly cot, whose grace and courage won for her a prouder and more lasting distinction far than could have been conferred by medals and ribands?</s> <s id="s161">After all, there is nothing like a little human interest to impart an added charm to natural scenery.</s> <s id="s162">You pass through <enamex sw="w22684" long="-3.020927713122514" lat="54.46105068867795" type="ppl" gazref="unlock:31171" name="Grasmere" conf="2.6">Grasmere</enamex>, <enamex sw="w22694" long="-2.97943049851992" lat="54.44978599662359" type="ppl" gazref="unlock:11275806" name="Rydal" conf="2.6">Rydal</enamex>, <enamex sw="w22701" long="-2.959272920560253" lat="54.43199742280473" type="ppl" gazref="unlock:11255" name="Ambleside" conf="2.6">Ambleside</enamex>, and you speak to none but landlords and landladies, waiters and chambermaids, and you lose the first element that brings you akin to the place and attaches you to it lastingly.</s> <s id="s163">It is not in these sweet vales as in the islands of the south, where the" spicy breezes blow,"--</s></p>
<p><s id="s164">" Where every prospect pleases, And only man is vile."</s></p>
<p><s id="s165">Although our dalespeople may not now be distinguished by all the primitive simplicity in which the first educated and polished settlers found them some seventy years ago, yet there is still, for all who love quiet and simple worth, abundance of the true metal still to reward him who seeks for it in the spirit of" charity out of a pure heart."</s></p>
<p><s id="s166">Wordsworth And The <enamex sw="w23405" long="-3.230911816118457" lat="54.2820732335677" type="ppl" gazref="unlock:16538" name="Duddon Bridge" conf="2.6">Duddon</enamex>.</s>
</p>
<p><s id="s167"><enamex sw="w23414" long="-3.230911816118457" lat="54.2820732335677" type="ppl" gazref="unlock:16538" name="Duddon Bridge" conf="2.6">Duddon</enamex> Sonnets-- A Two Days' solitary Visit to the <enamex sw="w23466" long="-3.193494016" lat="54.37016091" type="manual update" gazref="ZZSH00146" name="Duddon Valley" conf="99992">Duddon Valley</enamex> in September, 1882-- <enamex sw="w23502" long="-3.147051919378669" lat="54.37640163718885" type="water" gazref="unlock:11279855" name="Seathwaite Tarn" conf="2.4">Seathwaite Tarn</enamex>-- <enamex sw="w23521" long="-2.530420621975364" lat="54.31776717193408" type="ppl" gazref="unlock:11077784" name="Birks" conf="2.580053229">Birks</enamex> <enamex sw="w23527" long="-2.438846677416556" lat="54.38105291411932" type="other" gazref="unlock:11087198" name="Brigg Cotts" conf="2">Brigg</enamex> and Gowdrel Dub-- Glittering Transparency of the Water-- <enamex sw="w23592" long="-3.163207410991242" lat="54.40321322882879" type="ppl" gazref="unlock:11111654" name="Cockley Beck" conf="2.6">Cockley Beck</enamex>-- Division of the Valley-- <enamex sw="w23634" long="-3.1854" lat="54.4028" type="manual update" gazref="Norgate_ID_NY23150146" name="Hardknot" conf="99992">Hardknot</enamex> and <enamex sw="w23647" long="-3.132648376625117" lat="54.41249237763937" type="other" gazref="unlock:11327714" name="Wrynose Breast" conf="2">Wrynose</enamex>-- Wild Deer-- <enamex sw="w23671" long="-2.294928982360775" lat="51.43263950762571" type="other" gazref="unlock:11300400" name="Three Shire Stones" conf="0.6759462963">Three Shire Stones</enamex>-- Source of the <enamex sw="w23707" long="-3.230911816118457" lat="54.2820732335677" type="ppl" gazref="unlock:16538" name="Duddon Bridge" conf="2.6">Duddon</enamex>-- Dioptrics of a running Brook-- Varieties of Effects in a Mountainous Country-- Coming down to the Pastures and the Farms-- <enamex sw="w23843" long="-3.181453589957629" lat="54.50191128767066" type="ppl" gazref="unlock:11279850" name="Seathwaite" conf="2.6">Seathwaite</enamex> Church-- Rev. Robert Walker" The Wonderful"-- Original Information-- <enamex  sw="w23926" name="Too ambigious to allocate">Stepping Stones</enamex>-- <enamex sw="w23945" long="-3.1987" lat="54.3599" type="manual update" gazref="Norgate_ID_SD222967" name="Wallabarrow Crag" conf="99992">Wallabarrow</enamex> Crag-- The Red Felsite <enamex sw="w23981" long="-0.7608268105718292" lat="53.8502952838404" type="water" gazref="unlock:8784426" name="Black Dike" conf="1.248774165">Dike</enamex>-- <enamex sw="w23989" long="-3.238057281238421" lat="54.33055836482416" type="ppl" gazref="unlock:11309242" name="Ulpha" conf="2.6">Ulpha</enamex> Kirk-- <enamex sw="w24003" long="-3.176553642379131" lat="54.33117377515841" type="other" gazref="unlock:11134317" name="Dunnerdale Fells" conf="2">Dunnerdale Fells</enamex>-- <enamex sw="w24023" name="Duddon Woods">Duddon Woods</enamex>-- <enamex sw="w24039" long="-3.236978659407915" lat="54.2946137796413" type="fac" gazref="unlock:11133275" name="Duddon Hall" conf="2.2">Duddon Hall</enamex>-- <enamex sw="w24054" long="-0.4244515429591654" lat="51.01770661691184" type="other" gazref="unlock:11273782" name="Rowfold Grange" conf="0.7350124523">Rowfold</enamex> Bridge-- Flowering Plants and Ferns-- <enamex sw="w24102" long="-3.329728473676685" lat="54.31160486942807" type="water" gazref="unlock:11091615" name="Buckbarrow Beck" conf="2.4">Buckbarrow</enamex> Volcanic Crags-- If <enamex  sw="w24134" name="Large admin unit">England</enamex> were subject to Volcanic Eruptions?</s> <s id="s168">-- Glacier Polished Rocks-- A Day with Ruskin at the Weathered Rocks of <enamex sw="w24251" long="-118.7389771" lat="34.0952841" type="other" gazref="unlock:8092745" name="Goat Buttes" conf="0.5781588676">Goat</enamex>'s Water-- Ruskin's Confession of Faith in Christianity in" Praeterita"-- <enamex sw="w24331" long="-3.230911816118457" lat="54.2820732335677" type="ppl" gazref="unlock:16538" name="Duddon Bridge" conf="2.6">Duddon Bridge</enamex> and <enamex sw="w24349" long="-3.230911816118457" lat="54.2820732335677" type="ppl" gazref="unlock:16538" name="Duddon Bridge" conf="2.6">Duddon</enamex> Sands.</s></p>
<p><s id="s169">Seated beside a rugged, shattered, and confused mass of rock crowning the high ridge that overlooks <enamex sw="w24463" name="Birks Farm">Birks Farm</enamex> and <enamex sw="w24478" long="-3.1809" lat="54.3834" type="manual update" gazref="Norgate_ID_SD234993" name="Birks Brig" conf="99992">Birks Bridge</enamex>, the rich hues of advancing autumn throwing golden reflections upon the green patches of verdure that spread a glory over fell and valley, I here command a first view of the glowing scenery of the" <enamex sw="w24689" long="-3.230911816118457" lat="54.2820732335677" type="ppl" gazref="unlock:16538" name="Duddon Bridge" conf="2.6">Duddon</enamex> Sonnets," consecrated by the genius of Wordsworth, one of the three or four truly great poets to whom <enamex  sw="w24798" name="Large admin unit">England</enamex> has given birth.</s></p>
<p><s id="s170">Here I have chosen to commence my lonely contemplative visit to the higher <enamex sw="w24898" long="-3.193494016" lat="54.37016091" type="manual update" gazref="ZZSH00146" name="Duddon Valley" conf="99992">Duddon Valley</enamex>, descending into it exactly opposite the point from which Wordsworth himself recommended an entrance into the valley as the loveliest of all, at the descent from <enamex sw="w25074" long="-3.147051919378669" lat="54.37640163718885" type="water" gazref="unlock:11279855" name="Seathwaite Tarn" conf="2.4">Seathwaite Tarn</enamex>.</s></p>
<p><s id="s171">From my elevated vantage-ground, as I look north, the eye rests on the dreary wastes of <enamex sw="w25179" long="-3.132648376625117" lat="54.41249237763937" type="other" gazref="unlock:11327714" name="Wrynose Breast" conf="2">Wrynose</enamex>, which the dalespeople call Wreyness, extending far away towards the distant source of the <enamex sw="w25278" long="-3.230911816118457" lat="54.2820732335677" type="ppl" gazref="unlock:16538" name="Duddon Bridge" conf="2.6">Duddon</enamex>.</s> <s id="s172">To my left the golden browns and the yet unfaded greens mingle harmoniously upon the nearer fell-side, and there above comes tumbling down in a silvery broken stream of flashing light <enamex sw="w25470" long="-2.773201062785302" lat="54.96359343038616" type="fac" gazref="unlock:11072907" name="Beck Fm, The" conf="2.046414254">the beck</enamex> that issues from <enamex sw="w25496" long="-3.147051919378669" lat="54.37640163718885" type="water" gazref="unlock:11279855" name="Seathwaite Tarn" conf="2.4">Seathwaite Tarn</enamex> with a roar which I can hear at a distance of half a mile; while <enamex sw="w25577" long="1.628560932278733" lat="52.27643359260463" type="other" gazref="unlock:11161012" name="Grey Friars" conf="0.6862310061">Grey Friars</enamex>, the <enamex sw="w25594" long="-3.12208" lat="54.37042" type="other" gazref="unlock:4565407" name="Old Man of Coniston" conf="2">Old Man</enamex>, the <enamex sw="w25607" long="-3.1371" lat="54.3712" type="manual update" gazref="Geoname_ID_7290418" name="Dow Crag" conf="99992">Dow Crags</enamex>, and Walna <enamex sw="w25628" long="-2.629961755372798" lat="53.7869491367909" type="ppl" gazref="unlock:11253825" name="Red Scar" conf="1.545210997">Scar</enamex> stretch in broken continuity from the north-east to the south.</s> <s id="s173">At my left is the scarped and craggy ridge of <enamex sw="w25742" long="-2.423634142175174" lat="54.3990836606605" type="mtn" gazref="unlock:11166661" name="Harter Fell" conf="2.4">Harter Fell</enamex>, roughly terraced with rugged slopes broken with patches of brightest verdure, on which those active mountaineers, the Herdwick sheep, are quietly browsing.</s></p>
<p><s id="s174">Below, the sweet green valley lies soberly gay with the soft, subdued shining of a sun that struggles to get free from the clouds of silvery grey, and there winds, with many a devious reach, the vocal stream of <enamex sw="w26122" long="-3.230911816118457" lat="54.2820732335677" type="ppl" gazref="unlock:16538" name="Duddon Bridge" conf="2.6">Duddon</enamex>.</s> <s id="s175">Just below lies the peaceful farm called <enamex sw="w26171" long="-2.530420621975364" lat="54.31776717193408" type="ppl" gazref="unlock:11077784" name="Birks" conf="2.580053229">Birks</enamex>, where I know I shall presently receive a kindly welcome before I visit the far-famed <enamex sw="w26263" long="-2.530420621975364" lat="54.31776717193408" type="ppl" gazref="unlock:11077784" name="Birks" conf="2.580053229">Birks</enamex> <enamex sw="w26269" long="-2.438846677416556" lat="54.38105291411932" type="other" gazref="unlock:11087198" name="Brigg Cotts" conf="2">Brigg</enamex> and Gowdrel Dub, which, being very near, I propose, though down stream, to visit at the same time with <enamex sw="w26378" long="-2.530420621975364" lat="54.31776717193408" type="ppl" gazref="unlock:11077784" name="Birks" conf="2.580053229">Birks</enamex> <enamex sw="w26384" long="-2.438846677416556" lat="54.38105291411932" type="other" gazref="unlock:11087198" name="Brigg Cotts" conf="2">Brigg</enamex> before I proceed farther north.</s> <s id="s176">And now</s></p>
<p><s id="s177">" I seek the birthplace of a native stream-- All hail, ye mountains! hail, thou morning light! Better to breathe at large on this clear height Than toil in heedless sleep from dream to dream: Pure flow the verse, pure, vigorous, free, and bright, For <enamex sw="w26681" long="-3.230911816118457" lat="54.2820732335677" type="ppl" gazref="unlock:16538" name="Duddon Bridge" conf="2.6">Duddon</enamex>, long-loved <enamex sw="w26700" long="-3.230911816118457" lat="54.2820732335677" type="ppl" gazref="unlock:16538" name="Duddon Bridge" conf="2.6">Duddon</enamex>, is my theme!"</s></p>
<p><s id="s178">From the plain little old farmhouse you descend through green pastures to the swamp, when suddenly, as you approach the river, which has been coming down the dale so far leisurely enough, and in a commonplace way, you become aware of a sudden change.</s> <s id="s179">From sedgy banks varied with the aromatic bog-myrtle, the golden bog-asphodel, now out of flower, the rosy red-rattle, and the milk-white green-veined parnassia, the river plunges in haste among wave-washed rocks and boulders, scooped into fantastic shapes, whitened with the weather and the water, then passes on for a few yards through a deep, dark chasm between perpendicular rocks, cleft with gloomy fissures, deeper and deeper, narrower and more narrow, not, at any rate to-day, without hurry to a black pit some twenty feet deep, spanned aloft by one narrow arch; and here an exclamation of surprise spontaneously bursts forth even from a solitary wanderer as he gazes down with astonishment into the intense transparency of the emerald green of that pellucid pool, where now the water lags lazily along, only indicating the sluggishness of its movement by the gentle wafting of small discs of white foam brought from the fall close by.</s> <s id="s180">Whence this dazzling and most marvellous glassy greenness, reminding one of the blue beryl-like transparency of the deep mill-pond on the chalk in <enamex sw="w28063" long="-76.69" lat="39.0913889" type="other" gazref="unlock:8649021" name="Arundel Crossing East Industrial Park" conf="0.862399387">Arundel Park</enamex>?</s> <s id="s181">The polished slabs of rock that line the bottom, and would no doubt be white if laid on the land, lie below as green as the emerald cushions of moss that make gay the trickling rocks above.</s> <s id="s182">Perhaps none can accurately explain the physical cause.</s></p>
<p><s id="s183">This is Wordsworth's Faery chasm:--</s></p>
<p><s id="s184">" Abodes of naiads, calm abysses pure, Bright liquid mansions, fashioned to endure When the broad oak drops, a leafless skeleton, And the solidities of mortal pride, Palace and tower, are crumbled into dust!"</s></p>
<p><s id="s185">Peering rather perilously over the edge, the deafening roar of the torrent causing an involuntary tremor, I see the lofty crags riven with deep, dark fissures, where neither moss nor humblest fern can grow; buttress succeeding buttress, some like the fair white flying buttresses of <enamex sw="w28851" name="Gloucester Cathedral">Gloucester Cathedral</enamex>, all curved and hollowed out by the foaming torrents into a hundred weird, fantastic shapes.</s> <s id="s186">Here one starts at the unexpected sight of a colossal foot and leg of stone, from the knee downwards, dipping suspended in the stream, formed by the wearing away of the rock of volcanic ash.</s> <s id="s187">The resemblance is wonderful, making it an object of curiosity to both dalesfolk and visitors.</s></p>
<p><s id="s188">Charming contrast! Through the arch I see the clear, transparent, glassy pool kissed by the nodding alders, and kindled into life by the fiery red of a low mountain-ash in all her autumn bravery.</s></p>
<p><s id="s189">There are very strange freaks of rockwork down this part of <enamex sw="w29507" long="-3.230911816118457" lat="54.2820732335677" type="ppl" gazref="unlock:16538" name="Duddon Bridge" conf="2.6">Duddon</enamex>.</s> <s id="s190">Here is a huge and exactly square column of stone forty feet high, leaning unattached against the ferny bank, ten feet of it rising above the ground.</s> <s id="s191">It is cleft straight halfway down the middle with a clean fissure, with corresponding sides, as if the fracture had been a sudden one.</s> <s id="s192">The opposite bank is grand with vertical rocks richly clothed with verdure.</s> <s id="s193">But the lover of Nature who wants to hunt out these hidden beauties must leave the valley road and roam and climb at liberty.</s></p>
<p><s id="s194">A very little way farther down the stream, just opposite <enamex sw="w30059" long="-3.177838146734985" lat="54.37610519787424" type="other" gazref="unlock:11306423" name="Troutal" conf="2">Troutal</enamex>, is Gowdrel Dub.</s> <s id="s195">Dub means a silent pool beloved of silvery salmon, but Gowdrel is not, as some suppose, the golden rill, for nowhere in <enamex sw="w30204" long="-3.205728845294711" lat="54.27695240936971" type="ppl" gazref="unlock:11089765" name="Broughton in Furness" conf="2.6">Furness</enamex> is a stream of water ever called a rill, but a beck, the same as the German bach. Gowdrel is the name of the rough pasture that lies before it.</s> <s id="s196">Down comes hither the stripling <enamex sw="w30389" long="-3.230911816118457" lat="54.2820732335677" type="ppl" gazref="unlock:16538" name="Duddon Bridge" conf="2.6">Duddon</enamex> in a tremendous hurry through his deep worn channel, as though he thought it was high time to be moving on after sleeping so long in <enamex sw="w30529" long="-2.530420621975364" lat="54.31776717193408" type="ppl" gazref="unlock:11077784" name="Birks" conf="2.580053229">Birks</enamex> Dub; and so he sweeps on by vast square blocks that have fallen from the opposite cliff, where you may easily see the corresponding cavities, past rugged boulders and nodding sedges, past rushy banks and masses of ash, and dwarf oak, and birch, when suddenly down he comes again with a heavy fall," like a broken purpose," into a dark and deeply ramparted pool, where at once he goes to sleep, the water apparently ceasing to move, the soft, green, liquid transparency reappearing, as of late, in the limpid waters, and the bottom lined with smooth and polished rocks of lucid green, like the emerald banks.</s> <s id="s197">For a sweet little bit of gemlike mountain scenery, Gowdrel Dub is unsurpassable.</s> <s id="s198">See it if you can alone, or if with a friend, agree to leave behind all talk of business and the noisy, whirling world.</s> <s id="s199">Such converse here is out of place and against the grain.</s> <s id="s200">Here are sweet sprigs of purple heather at my feet that have rejoiced no eyes but those of a wandering vicar.</s></p>
<p><s id="s201">" Sole listener, <enamex sw="w31529" long="-3.230911816118457" lat="54.2820732335677" type="ppl" gazref="unlock:16538" name="Duddon Bridge" conf="2.6">Duddon</enamex>! to the breeze that played With thy dear voice, I caught the fitful sound Wafted over sullen moss and craggy mound,-- Unfruitful solitudes, that seemed to upbraid The sun in heaven!-- but now, to form a shade For Thee, green alders have together wound Their foliage; ashes flung their arms around; And birch-trees risen in silver colonnade."</s></p>
<p><s id="s202">So the heather sprigs have bloomed for me.</s> <s id="s203">May they not have bloomed in vain! Some days we live that do the work of years; some hours there are that tinge a life.</s> <s id="s204">It is not given to every one to reap life-long enjoyment from the mere sight of a field of daffodils dancing in the sunlight; but what is Wordsworth's moral?</s></p>
<p><s id="s205">" For oft when on my couch I lie In vacant or in pensive mood,</s> </p>
<p><s id="s206">They flash upon that inward eye Which is the bliss of solitude, And then my heart with pleasure fills, And dances with the daffodils."</s></p>
<p><s id="s207">This September sky supplies the most perfect light for the dale.</s> <s id="s208">The atmosphere seems refined into a crystalline clearness and purity; the colouring is richer, tenderer, and more sweetly blended and harmonised.</s> <s id="s209">The bright green pastures are softly dappled over with shadows dropped from gently moving clouds; shadows that lie long in spots fixed and unmoved, with steady beams of quiet pleasant sunshine interposed.</s> <s id="s210">The glancing torrents scaur the mountain sides with streaks of glistening sheen.</s> <s id="s211">Here the isolated rock called <enamex sw="w32926" long="-3.178352936632703" lat="54.39407766726341" type="mtn" gazref="unlock:11101050" name="Castle How" conf="2.4">Castle How</enamex> looms dark and frowning, there the sweet pastures smile bright with the autumn after-grass; and amidst them all glide the" trotting brooks" and chattering becks, and the babbling and brawling companion of my walk, the young <enamex sw="w33161" long="-3.230911816118457" lat="54.2820732335677" type="ppl" gazref="unlock:16538" name="Duddon Bridge" conf="2.6">Duddon</enamex> ever running by my side and ever telling me of his busily-idle, never-ending life, and flashing merrily back the rays of sunlight that so liberally steep his waves in gems of purest light.</s> <s id="s212">Wordsworth observes that the influence of this season in the dale of the <enamex sw="w33430" long="-3.230911816118457" lat="54.2820732335677" type="ppl" gazref="unlock:16538" name="Duddon Bridge" conf="2.6">Duddon</enamex> is, that in it" the imagination, by the aid of natural scenery, is carried into recesses of feeling otherwise unattainable."</s></p>
<p><s id="s213">Farther up the valley, opposite <enamex sw="w33594" long="-3.059089958536369" lat="54.54798717411453" type="fac" gazref="unlock:11126507" name="Dalehead Hall (Hotel)" conf="2.2">Dalehead</enamex>, and below <enamex sw="w33614" long="-3.178610543749578" lat="54.40306388059761" type="fac" gazref="unlock:11078541" name="Black Hall" conf="2.2">Black Hall</enamex>, are stepping-stones; but these are not the poet's far-famed stepping-stones; we shall cross these much lower down, below <enamex sw="w33747" long="-3.181453589957629" lat="54.50191128767066" type="ppl" gazref="unlock:11279850" name="Seathwaite" conf="2.6">Seathwaite</enamex>.</s></p>
<p><s id="s214">But here is <enamex sw="w33771" long="-3.163207410991242" lat="54.40321322882879" type="ppl" gazref="unlock:11111654" name="Cockley Beck" conf="2.6">Cockley Beck</enamex> at last, Lancashire's Ultima Thule, the last vestige of human habitation for a very long way to come; for here the dale divides, and the lonely farm stands at the meeting of three mountain roads.</s></p>
<p><s id="s215">Here I have said the road divides right and left.</s> <s id="s216">The rough road to the left will take you over <enamex sw="w34076" long="-3.1854" lat="54.4028" type="manual update" gazref="Norgate_ID_NY23150146" name="Hardknot" conf="99992">Hardknot</enamex> Pass into verdant smiling <enamex sw="w34111" long="-3.323474574274605" lat="54.38973821999076" type="ppl" gazref="unlock:39694" name="Eskdale Green" conf="2.6">Eskdale</enamex>.</s> <s id="s217">" <enamex sw="w34121" long="-3.2062" lat="54.4029" type="manual update" gazref="Norgate_ID_NY218015" name="Hardknot Castle" conf="99992">Hardknot</enamex> Castle," a shapeless and barely distinguishable ruin, may be discerned by a careful eye crowning the height on the right hand.</s></p>
<p><s id="s218">" Fallen, and diffused into a shapeless heap, Or quietly self-buried in earth's mould,</s> </p>
<p><s id="s219">Is that embattled House, whose massy keep Flung from yon cliff a shadow large and cold.</s> <s id="s220">There dwelt the gay, the beautiful, the bold, Till mighty lamentations, like the sweep Of winds-- though winds were silent-- struck a deep And lasting terror through that ancient <enamex sw="w34613" long="-1.203133010685334" lat="51.34037340872234" type="ppl" gazref="unlock:11319632" name="Wheat Hold" conf="1.292437224">Hold</enamex>.</s> <s id="s221">Its line of warriors fled;-- they shrunk when tried By ghostly power;-- but Time's unsparing hand Hath plucked such foes, like weeds, from out the land; And now, if men with men in peace abide, All other strength the weakest may withstand, All worse assaults may safely be defied."</s></p>
<p><s id="s222">Here, at <enamex sw="w34912" long="-3.163207410991242" lat="54.40321322882879" type="ppl" gazref="unlock:11111654" name="Cockley Beck" conf="2.6">Cockley Beck</enamex>, I shall find hospitable quarters for the night, with the perfection of homely rustic simplicity; and while my simple supper is preparing, I stroll in the softened light of the declining sun up the dreary, treeless valley whence the <enamex sw="w35158" long="-3.230911816118457" lat="54.2820732335677" type="ppl" gazref="unlock:16538" name="Duddon Bridge" conf="2.6">Duddon</enamex>," child of the clouds," derives its birth.</s></p>
<p><s id="s223">" To chant thy birth, thou hast No meaner poet than the whistling blast, And Desolation is thy patron saint! She guards thee, ruthless power! who would not spare Those mighty forests, once the bison's screen, Where stalked the huge deer to his shaggy lair Through paths and alleys roofed with darkest green, Thousands of years before the silent air Was pierced by whizzing shaft of hunter keen!"</s></p>
<p><s id="s224">Grandly antlered heads of these noble extinct animals are often found in the sands of the estuary, sometimes in quantities together.</s> <s id="s225">On Bleansley Bank, near <enamex sw="w35760" long="-2.73333" lat="53.81667" type="other" gazref="unlock:4578882" name="Broughton" conf="1">Broughton</enamex>, are ancient square enclosures, now almost levelled with the turf, which are generally believed to have been used for driving the red deer into.</s> <s id="s226">There are yet survivors of the primitive red deer in the lonely wilds of <enamex sw="w35988" long="-2.8859" lat="54.5424" type="manual_update"  gazref="Geoname_ID_7300150" name="Martindale" conf="99991">Martindale</enamex>; and up to the last century they still herded in <enamex sw="w36048" long="-3.323474574274605" lat="54.38973821999076" type="ppl" gazref="unlock:39694" name="Eskdale Green" conf="2.6">Eskdale</enamex> and Wastdale.</s> <s id="s227">One may regret the disappearance of these fine animals on sentimental grounds; but I have been told by old farmers of the destruction they worked in rick-yards and among the young corn, so that it was impossible to tolerate them any longer.</s> <s id="s228">An old lady has told me how, when she was a girl in <enamex sw="w36363" long="-2.8859" lat="54.5424" type="manual_update"  gazref="Geoname_ID_7300150" name="Martindale" conf="99991">Martindale</enamex>, she was employed in keeping off the fierce red deer from robbing the sheep of their winter fodder.</s></p>
<p><s id="s229"><enamex sw="w36474" long="-3.22672" lat="54.27705" type="manual update" gazref="Geoname_ID_2650842" name="River Duddon" conf="99992">Duddon springs</enamex> up above there on <enamex sw="w36507" long="-3.132648376625117" lat="54.41249237763937" type="other" gazref="unlock:11327714" name="Wrynose Breast" conf="2">Wrynose</enamex> <enamex  sw="w36515" name="Too ambigious to allocate">Gap</enamex> in a swampy tableland, the watershed between the cheerful, happy-looking valley of <enamex sw="w36602" long="-3.051865815747152" lat="54.42093505077031" type="ppl" gazref="unlock:34442" name="Little Langdale" conf="2.6">Langdale</enamex> and the vale of <enamex sw="w36627" long="-3.230911816118457" lat="54.2820732335677" type="ppl" gazref="unlock:16538" name="Duddon Bridge" conf="2.6">Duddon</enamex>, not many yards intervening between the sources of the Brathay and of our <enamex sw="w36708" long="-3.230911816118457" lat="54.2820732335677" type="ppl" gazref="unlock:16538" name="Duddon Bridge" conf="2.6">Duddon</enamex>.</s> <s id="s230">The famous <enamex sw="w36727" long="-2.294928982360775" lat="51.43263950762571" type="other" gazref="unlock:11300400" name="Three Shire Stones" conf="0.6759462963">Three Shire Stones</enamex> preside at the birth of both, where without any great extension of the person one may lie at the same moment in the three <enamex  sw="w36868" name="Large admin unit">counties of Lancashire</enamex>, <enamex  sw="w36892" name="Large admin unit">Westmoreland</enamex>, and <enamex  sw="w36910" name="Large admin unit">Cumberland</enamex>.</s> <s id="s231">For if the <enamex sw="w36933" long="-3.230911816118457" lat="54.2820732335677" type="ppl" gazref="unlock:16538" name="Duddon Bridge" conf="2.6">Duddon</enamex> exactly divides <enamex  sw="w36956" name="Large admin unit">Cumberland</enamex> from <enamex  sw="w36972" name="Large admin unit">Lancashire</enamex>, the sod next beyond the source must be in <enamex  sw="w37026" name="Large admin unit">Westmoreland</enamex>.</s></p>
<p><s id="s232">There amid cloud and storm, and desolation vast and drear, the infant <enamex sw="w37110" long="-3.230911816118457" lat="54.2820732335677" type="ppl" gazref="unlock:16538" name="Duddon Bridge" conf="2.6">Duddon</enamex> begins his course with slow uncertain step.</s> <s id="s233">Many streams tumbling down the amphitheatre of dark hillsides join the main current which, when it reaches the bottom of the treeless waste of <enamex sw="w37304" long="-3.147804138495237" lat="54.40336061293446" type="other" gazref="unlock:11327713" name="Wrynose Bottom" conf="2">Wrynose Bottom</enamex>, is already a rapid, clamorous stream commencing its endless war of stones and waters.</s></p>
<p><s id="s234">" No check, no stay this streamlet fears, How merrily it goes!' Twill murmur on a thousand years, And flow as now it flows."</s></p>
<p><s id="s235">The morning after breaks with a pure and pearly light, and I take a kindly farewell of my pleasant entertainers.</s> <s id="s236">How we glory while we gaze! Glory in all creation, bountiful, infinitely beautiful, teeming with objects sublime and majestic or minutely lovely, which create thoughts too deep for utterance.</s></p>
<p><s id="s237">Seeing is happiness without the labour of reflection; and we feel that we are commencing</s></p>
<p><s id="s238">" One of those heavenly days that cannot die."</s></p>
<p> <s id="s239">For the rain is very plentiful here, over 100 inches in a year.</s></p>
<p><s id="s240">What marvellous and incredible effects are produced by the play and combination of the changeful atmospheric light upon running waters! Here runneth a brook, only a yard wide, flowing with great rapidity after last night's copious rain.</s> <s id="s241">I am drawn aside to gaze at the liquid lapse of shining waters by the strange spectacle of an intense and brilliant opal light within of mingling prismatic and iridescent hues of violet and purple, azure blue and malachite-greens, with amber yellow, harmoniously blended with shining russet browns.</s> <s id="s242">I stop to ascertain what can be the cause of this new phenomenon.</s> <s id="s243">What can compose the streamlet's bed that rolls with hues so strange and fairy-like?</s> <s id="s244">And I see with surprise merely the long and waving tresses of bedded water-grass and pond-weed, washed into graceful motion by the impetuous limpid stream, whose light is blended with reflections from the flower-spangled bank, from a low green mossy wall, and from a sky struggling between sunshine and cloud.</s> <s id="s245">These alone, with dioptric laws of which no account can be rendered, combine to produce an unusual metallic lustre such as I never saw before, except faintly imitated in imaginative pictures of fairy-land, not ever expect to see again.</s> <s id="s246">It is" that light that never shone over land or sea."</s></p>
<p><s id="s247">Perhaps the most remarkable advantage, in an artistic point of view, which we possess in the Lake district, is the ever-shifting and changeful character of the scenery.</s> <s id="s248">We have the same physical features continually before our eyes under perpetually varying effects of light and shadow, running through all imaginable shades that are possible in Nature, from bright celestial blue, and green like that of emeralds, to purple bathed in rose, and ending for a while in the darkest hues.</s> <s id="s249">I have seen <enamex sw="w39819" long="-3.328281786124296" lat="54.26667557117908" type="mtn" gazref="unlock:11078408" name="Black Combe" conf="2.4">Black Combe</enamex> mantled in snow on a bright winter's morning at sunrise, royally clothed in alpine hues of rose and pink and violet and gold, shining with the brilliancy of the diamond.</s> <s id="s250">From <enamex sw="w40006" long="-3.043402327204126" lat="54.53913510713601" type="water" gazref="unlock:11169754" name="Helvellyn Gill" conf="2.4">Helvellyn</enamex> I have seen, after a rainy morning, <enamex sw="w40052" long="-2.858689089593993" lat="54.57654014526283" type="water" gazref="unlock:11309236" name="Ullswater" conf="2.4">Ullswater</enamex> lying mapped below of an ultramarine of incredible brilliancy, and all the rolling ocean of mountains, valleys, and plains beyond bathed in crystalline cerulean blue; but encompassed in a frame of vast black precipices which seemed to be steeped in night, while a heavenly light smiled upon all the rest of the scene.</s></p>
<p><s id="s251">Here each grey and slate-roofed humble tenement is half - hidden in its setting of sycamore-trees, and is encompassed by its little farm of twelve to twenty acres of green pasture; and you long to bid good morning to the quiet and honest folk that dwell in them; and they are glad if you do, and will talk with you as long as you like, for they see very few strangers passing up and down this dale.</s> <s id="s252">Then comes the wild fell again; then another ancient cottage, but perhaps whitewashed this time, till you come to the" open prospect," where they lie scattered over a wider tract.</s> <s id="s253">About a mile from <enamex sw="w40975" long="-3.181453589957629" lat="54.50191128767066" type="ppl" gazref="unlock:11279850" name="Seathwaite" conf="2.6">Seathwaite</enamex> Church,</s></p>
<p><s id="s254">" Hail to the Fields-- with dwellings sprinkled over, And one small hamlet, under a green hill Clustering, with barn and byre, and spouting mill! A glance suffices."</s></p>
<p><s id="s255">Here the narrow dale opens out, and the rural valley spreads before us, green and charming.</s> <s id="s256">The farms, instead of being separated by wild bits of fell land, are only divided from each other by dimpling becks and moss-grown fences.</s> <s id="s257">Behind <enamex sw="w41398" long="-3.192710108182777" lat="54.35798160812438" type="mtn" gazref="unlock:11177017" name="Hollin House Tongue" conf="2.4">Tongue House</enamex> you see a mountain-path climbing to <enamex sw="w41447" long="-3.147051919378669" lat="54.37640163718885" type="water" gazref="unlock:11279855" name="Seathwaite Tarn" conf="2.4">Seathwaite Tarn</enamex>, a lonely sheet of water lying 1,210 feet high, yet bosomed deep beneath <enamex sw="w41536" long="-3.147553261037059" lat="54.39437430188362" type="mtn" gazref="unlock:11161011" name="Grey Friar" conf="2.4">Grey Friar</enamex> and the <enamex sw="w41555" long="-3.12208" lat="54.37042" type="other" gazref="unlock:4565407" name="Old Man of Coniston" conf="2">Old Man</enamex>, with their outlying buttresses.</s> <s id="s258">It is a favourite spot for a picnic for the neighbouring gentry and their friends.</s> <s id="s259">Fifty will sometimes gather here for a merry day.</s> <s id="s260">The tarn is drawn, the trout and char come in by hundreds, and are cooked on the spot in some fissure of the rocks, and never any sauce is asked for but the keen appetite engendered by the ozone in the mountain air.</s> <s id="s261">This elevated glen is full of interest to the geologist, with its moraines, its blocs perchs, and its accumulations of boulders, where the ice last melted after the glacial period.</s></p>
<p><s id="s262">" Thy church and cottages of mountain stone, Clustered like stars some few, but singly some, And lurking dimly in their shy retreats, Or glancing at each other's cheerful looks, Like separated stars with clouds between."</s> </p>
<p> <s id="s263">( See Knight's" Wordworth," p. 42)</s></p>
<p><s id="s264">It is the weathering of innumerable ages which has produced these manifold fantastic forms of rock, and caused the downfall and the mysterious distribution of vast detached blocks, which have lain for centuries resting upon, or lying against, each other, the erratic boulders weathering with age to a creamy whiteness.</s></p>
<p><s id="s265">But here are, a short way apart, two venerable grey cottages, each nestling under its own steep rude crag.</s> <s id="s266">The first is <enamex sw="w42823" long="-3.097279574984478" lat="54.24203266663014" type="other" gazref="unlock:11228284" name="Nettleslack" conf="2">Nettleslack</enamex>, which is deserted, though not entirely ruined; the other is called <enamex sw="w42903" long="-2.984612801849855" lat="54.66546338251215" type="other" gazref="unlock:11309325" name="Undercrag" conf="1.995939445">Undercrag</enamex>, and is in excellent repair, and inhabited by Joseph Walker-- some descendant( though I was told the kindred is" worn out") of Walker" The Wonderful."</s> <s id="s267">In which of these cottages the venerable pastor of <enamex sw="w43116" long="-3.181453589957629" lat="54.50191128767066" type="ppl" gazref="unlock:11279850" name="Seathwaite" conf="2.6">Seathwaite</enamex> was born is uncertain among the dalespeople, though the guide-books and local histories pronounce without hesitation for <enamex sw="w43248" long="-2.984612801849855" lat="54.66546338251215" type="other" gazref="unlock:11309325" name="Undercrag" conf="1.995939445">Undercrag</enamex>.</s></p>
<p><s id="s268">As I pass the new chapel of <enamex sw="w43287" long="-3.181453589957629" lat="54.50191128767066" type="ppl" gazref="unlock:11279850" name="Seathwaite" conf="2.6">Seathwaite</enamex>( sprung up fresh and beautiful from the very site of its revered predecessor), I bow my head in deep and heartfelt respect for the venerable pastor, whose name is still( 1883) here held in honour and regard after the eighty years since he exchanged his rustic wreath of honest fame for an incorruptible crown of glory.</s></p>
<p><s id="s269">" Sacred Religion!' mother of form and fear,' Dread arbitress of mutable respect, New rites ordaining when the old are wrecked, Or cease to please the fickle worshipper.</s> <s id="s270">Mother of Love!( that name best suits thee here) Mother of Love! In this deep vale, protect Truth's holy lamp, pure source of bright effect, Gifted to purge the vapouring atmosphere That seeks to stifle it;-- as in those days When this low Pile a Gospel Teacher knew, Whose good works formed an endless retinue: A Pastor such as Chaucer's verse portrays; Such as the heaven-taught skill of Herbert drew; And tender Goldsmith crowned with deathless praise."</s></p>
<p><s id="s271">I will not enter here into the almost legendary history of the Rev. Robert Walker, surnamed" The Wonderful."</s> <s id="s272">It has been told so often, in almost precisely the same words, that one is rather tired of hearing the same unvarying tale.</s> <s id="s273">So much is certain, that he died in 1802, at the age of ninety - three, having been sixty - seven years incumbent of <enamex sw="w44590" long="-3.181453589957629" lat="54.50191128767066" type="ppl" gazref="unlock:11279850" name="Seathwaite" conf="2.6">Seathwaite</enamex>; and that his wife died in 1800, at the same advanced age.</s> <s id="s274">That he was a man of great industry and thrift, and of unsullied honesty and integrity, is also certain, or his successor would not have made in the burial register the remarkable entry:" He was a man singular for his temperance, industry, and integrity."</s></p>
<p><s id="s275">Before I began personally to inquire into the history of the Rev. Robert Walker, I used to think that surely he must have owed much of his honourable fame to the fortunate circumstance that he had been sung by the first and hitherto the greatest of the laureated poets of <enamex  sw="w45188" name="Large admin unit">England</enamex>.</s> <s id="s276">But it is not so.</s> <s id="s277">I am at this moment fresh from a conversation with two venerable ladies( sisters), parishioners of <enamex sw="w45314" long="-2.73333" lat="53.81667" type="other" gazref="unlock:4578882" name="Broughton" conf="1">Broughton</enamex>, who were both baptised by him, and who spent the best portion of a long life in <enamex sw="w45405" long="-3.181453589957629" lat="54.50191128767066" type="ppl" gazref="unlock:11279850" name="Seathwaite" conf="2.6">Seathwaite</enamex>, and they good-humouredly laugh to scorn the idea of Mr. Walker being indebted for his fame to a mere poet.</s> <s id="s278">" Oh, no, sir; he was good in every way.</s> <s id="s279">We never heard anybody say a word against him."</s></p>
<p><s id="s280">When he accepted the living of <enamex sw="w45643" long="-3.181453589957629" lat="54.50191128767066" type="ppl" gazref="unlock:11279850" name="Seathwaite" conf="2.6">Seathwaite</enamex>,  5 a year, a cottage, and an acre of glebe, with  40 by his excellent wife, were all he had to live upon.</s> <s id="s281">The  40 went to furnish the house, and yet when he died he had to leave to his children the sum of  2,000, solely the fruits of honest industry and frugality.</s> <s id="s282">There, dwelling amongst his people, he lived and ministered both spiritually and temporally for the space of sixty - seven years to his scattered parishioners, numbering about a hundred and thirty souls, with invariable kindness and fidelity, with the grave dignity becoming his position, and bearing a stainless and perfectly irreproachable character.</s> <s id="s283">He brought up a family of eleven children, educated them wholly himself, with his child-parishioners, in the humble little chapel, sitting within the altar-rails, and using the communion-table as his desk.</s> <s id="s284">While he taught he was spinning at his wheel.</s> <s id="s285">All his scholars( with one of whom, eighty years of age, I conversed twelve years ago) well remember his unvarying kindness and good temper; and he produced such scholars in more than merely</s></p>
<p> <s id="s286">Those were days of distressing poverty for the country clergy in these northern parts, when"  5 a year, goose grass, harden sark( a tough durable shirt), and whittlegate" were all that many of the best of the clergy might look to for a living.</s> <s id="s287">" Whittlegate is to have two or three weeks' victuals at each house, according to the ability of the inhabitants, which was settled amongst them so that the parson should go his course as regular as the sun, and complete it as annually.</s> <s id="s288">Few houses having more knives than one or two, the pastor was often obliged to buy his own( though sometimes it was bought for him by the chapel wardens), and march from house to house with his whittle seeking fresh pasturage; as master of the herd he demanded the elbow-chair at the table-head, which was often made of part of a hollow ash-tree, as may in these parts be seen at this day.</s> <s id="s289">A person was thought a proud fellow in those days that was not content without a fork to his knife; he was reproved for it, and told that fingers were made before forks."--" Survey of the Lakes," by James Clark, land surveyor, 1787.</s> <s id="s290">The same authority affirms that some pastors were fortunate enough to obtain a suit of clothes annually from their compassionate parishioners.</s></p>
<p><s id="s291">Not so that Pair whose youthful spirits dance With prompt emotion, urging them to pass; A sweet confusion checks the shepherd lass; Blushing she eyes the dizzy flood askance; To stop ashamed-- too timid to advance; She ventures once again-- another pause! His outstretched hand he tauntingly withdraws-- She sues for help with piteous utterance! Chidden, she chides again; the thrilling touch Both feel, when he renews the wished-for aid: Ah! if their fluttering hearts should stir too much, Should beat too strongly, both may be betrayed.</s> <s id="s292">The frolic Loves, who from yon high rock see The struggle, clap their wings for victory!"</s></p>
<p><s id="s293">Thus the poet pictures childhood, youth, and age putting their budding or their declining powers to the proof in crossing the rapid river by that hazardous-looking path.</s> <s id="s294">Then a youth and a maiden are imagined, the one with provoking playfulness, the other with timid remonstrance, venturing over this most welcome and delightful way of not unpleasant peril.</s> <s id="s295">They certainly do require a sure foot and a steady eye who venture across, and I felt glad when I had got safely over.</s> <s id="s296">There are seventeen large and well-worn stepping-stones in the stream, which runs swiftly with an ordinary depth of about eighteen inches.</s></p>
<p><s id="s297">From <enamex sw="w49216" long="-3.181453589957629" lat="54.50191128767066" type="ppl" gazref="unlock:11279850" name="Seathwaite" conf="2.6">Seathwaite</enamex> to <enamex sw="w49230" long="-3.238057281238421" lat="54.33055836482416" type="ppl" gazref="unlock:11309242" name="Ulpha" conf="2.6">Ulpha</enamex> let the active tourist by no means travel ignominiously in a carriage by the high-road down the valley, but continue his way past the stepping-stones under <enamex sw="w49392" long="-3.1987" lat="54.3599" type="manual update" gazref="Norgate_ID_SD222967" name="Wallabarrow Crag" conf="99992">Wallabarrow</enamex>, one of the noblest isolated crags in <enamex  sw="w49442" name="Large admin unit">Europe</enamex>.</s> <s id="s298">There he is again rejoined by his noisy, chattering companion, the <enamex sw="w49517" long="-3.230911816118457" lat="54.2820732335677" type="ppl" gazref="unlock:16538" name="Duddon Bridge" conf="2.6">Duddon</enamex>, considerably broader, but not one whit steadier, since we saw him last.</s> <s id="s299">This is a charming rural walk amongst green pastures and wooded fells, with pleasant-looking farm-houses at intervals.</s></p>
<p><s id="s300">Here we encounter an interesting geological curiosity.</s> <s id="s301">Skirting the stream by a foot-path, we suddenly come upon a section of the river-bed where, for some 150 yards, the water seems to run of a bloody red.</s> <s id="s302">In spots up and down the valley, but all in one straight line, a hard rock of a rich red crops out.</s> <s id="s303">One in particular, in an elevated position among the woods, stands out conspicuously from a distance, ruddy amidst the green trees.</s> <s id="s304">It is a red felsite dike-- a fissure of unknown depth, of volcanic origin, running two miles from <enamex sw="w50254" long="-3.1987" lat="54.3599" type="manual update" gazref="Norgate_ID_SD222967" name="Wallabarrow Crag" conf="99992">Wallabarrow</enamex> to <enamex sw="w50269" long="-3.177838146734985" lat="54.37610519787424" type="other" gazref="unlock:11306423" name="Troutal" conf="2">Troutal</enamex>, and of only a few yards in width.</s> <s id="s305">The river breaking off small fragments, and rolling them down till they become smooth rounded pebbles, gives us those pretty bits of colour we see enlivening the bed of the river at <enamex sw="w50494" long="-3.230911816118457" lat="54.2820732335677" type="ppl" gazref="unlock:16538" name="Duddon Bridge" conf="2.6">Duddon Bridge</enamex>, and which also supply the small red boulders that here and there stud the pebble pavements of <enamex sw="w50603" long="-2.73333" lat="53.81667" type="other" gazref="unlock:4578882" name="Broughton" conf="1">Broughton</enamex>.</s></p>
<p><s id="s306">There is an exceedingly fine reach of the <enamex sw="w50656" long="-3.230911816118457" lat="54.2820732335677" type="ppl" gazref="unlock:16538" name="Duddon Bridge" conf="2.6">Duddon</enamex> not far from <enamex sw="w50676" long="-3.238057281238421" lat="54.33055836482416" type="ppl" gazref="unlock:11309242" name="Ulpha" conf="2.6">Ulpha</enamex> Kirk, where the river runs swiftly between huge bare masses of grey rock, boldly and deeply cleft, arched overhead by trees, and a beautiful little waterfall plunging down from the bank into the river.</s> <s id="s307">Here the Osmunda is found superbly tall, and the starry Parnassia beautiful and abundant.</s> <s id="s308">The spot is a perfect gem of beauty, and well worth a deviation.</s></p>
<p><s id="s309"><enamex sw="w51039" long="-3.238057281238421" lat="54.33055836482416" type="ppl" gazref="unlock:11309242" name="Ulpha" conf="2.6">Ulpha</enamex> Church, called by the older people Oopha Kirk, here dominates the vale--</s></p>
<p><s id="s310">" The Kirk of <enamex sw="w51132" long="-3.238057281238421" lat="54.33055836482416" type="ppl" gazref="unlock:11309242" name="Ulpha" conf="2.6">Ulpha</enamex> to the pilgrim's eye Is welcome as a star, that doth present Its shining forehead through the peaceful rent Of a black cloud diffused over half the sky."</s></p>
<p><s id="s311">Like too many other churches in the district, it was a mouldy, earthy-smelling, squalid, and poverty-stricken rustic place of worship; but has, under a new and active young vicar, been thoroughly emptied of all its grotesque and ungraceful contents, and refurnished with a simple and refined taste; and now it looks just as it should do-- not debased and dirty, but light and clean and neat in every part.</s> <s id="s312">The exterior, with the exceptions of a new porch, belfry, and lych-gate, remains exactly as Wordsworth saw it, when he used to meditate in the vale, and stay at the <enamex  sw="w51864" name="Too ambigious to allocate">Kirk House</enamex>, a name often given to the village inn in these parts.</s> <s id="s313">The memory of the poet, as a poet, still survives among the aged in the valley, which, as he was born in 1770 and died in 1850, may very well be.</s> <s id="s314">An old lady remembers well his kindness to children, and how fond he was of patting them on the head.</s></p>
<p><s id="s315">Very restful and very charming to the eye and mind is the prospect of this plain and homely little church looking down so peacefully upon the rushing torrent far below, which, for want of anything better to do, has been busy for ages scooping out the great blue-grey rocks in the river-bed into a variety of the strangest forms.</s></p>
<p><s id="s316">On a stone of the bridge is rudely carved" Watch, 1749," cut, it is said, during a severe visitation of pestilence, when cattle were not allowed to pass out of one county into the next.</s></p>
<p><s id="s317">The <enamex sw="w52698" long="-3.230911816118457" lat="54.2820732335677" type="ppl" gazref="unlock:16538" name="Duddon Bridge" conf="2.6">Duddon</enamex> Sonnets portray no woodland scenes below <enamex sw="w52746" long="-3.236819186" lat="54.3264035" type="manual update" gazref="ZZSH00082" name="Ulpha Bridge" conf="99992">Ulpha Bridge</enamex>.</s> <s id="s318">But as there is some surpassingly beautiful scenery below that point, we will yet continue our journey.</s> <s id="s319">From the bridge the main road leads along the foot of the <enamex sw="w52922" long="-3.176553642379131" lat="54.33117377515841" type="other" gazref="unlock:11134317" name="Dunnerdale Fells" conf="2">Dunnerdale Fells</enamex> to <enamex sw="w52942" long="-2.73333" lat="53.81667" type="other" gazref="unlock:4578882" name="Broughton" conf="1">Broughton</enamex> and to <enamex sw="w52959" long="-3.265224525443216" lat="54.21341952914801" type="ppl" gazref="unlock:11219982" name="Millom" conf="2.6">Millom</enamex>.</s> <s id="s320">The scenery, though grand and noble, is bare and wild.</s> <s id="s321">In the boggy streams running off these fells is found the great sundew( Drosera anglica), a rare plant.</s> <s id="s322">The valley is shut in between imposing rocky crags of a pale grey colour on the <enamex sw="w53208" long="-3.206612762061802" lat="54.34921400477799" type="ppl" gazref="unlock:40402" name="Hall Dunnerdale" conf="2.6">Dunnerdale</enamex> or <enamex  sw="w53222" name="Large admin unit">Lancashire side</enamex>; on the <enamex  sw="w53246" name="Large admin unit">Cumberland side</enamex> by the majestic woods of <enamex sw="w53287" long="-3.236978659407915" lat="54.2946137796413" type="fac" gazref="unlock:11133275" name="Duddon Hall" conf="2.2">Duddon Hall</enamex> and the mountain called the Pen, and all the <enamex sw="w53344" long="-3.328281786124296" lat="54.26667557117908" type="mtn" gazref="unlock:11078408" name="Black Combe" conf="2.4">Black Combe</enamex> range of fells.</s> <s id="s323">It must have been with his customary bold defiance of the realistic school that Wordsworth chose to speak of the Plain of <enamex sw="w53494" long="-3.206612762061802" lat="54.34921400477799" type="ppl" gazref="unlock:40402" name="Hall Dunnerdale" conf="2.6">Dunnerdale</enamex>, where of plane country there is none whatever; and being in my own parish, of course I know <enamex sw="w53598" long="-3.206612762061802" lat="54.34921400477799" type="ppl" gazref="unlock:40402" name="Hall Dunnerdale" conf="2.6">Dunnerdale</enamex> and all its snug farms intimately.</s> <s id="s324">The name is probably from <enamex sw="w53670" long="-3.1786" lat="54.3532" type="manual update" gazref="Geoname_ID_7294790" name="Dunnerdale" conf="99992">Duddon dale</enamex>, as the island of <enamex sw="w53700" long="-3.203634352430425" lat="54.205061504475" type="ppl" gazref="unlock:11134318" name="Dunnerholme" conf="2.6">Dunnerholme</enamex> would be from <enamex sw="w53726" name="Duddon holm">Duddon holm</enamex>.</s></p>
<p><s id="s325">We follow down the stream on the <enamex  sw="w53772" name="Large admin unit">Cumberland side</enamex>, as containing the most picturesque objects.</s> <s id="s326">All this side of the <enamex sw="w53854" long="-3.230911816118457" lat="54.2820732335677" type="ppl" gazref="unlock:16538" name="Duddon Bridge" conf="2.6">Duddon</enamex> abounds in the loveliest woodland scenery, which here we survey in quieter mood," soothed by the unseen river's gentle roar."</s> <s id="s327">Vast moss-grown fragments of rock or boulders are everywhere overshadowed by beech and fir, by oak and ash; the shady banks are graced with plumy beech-fern, and the darker recesses carpeted with the oak-fern.</s> <s id="s328">Every bridge down the river is darkly clad in rue-fern and in maidenhair spleenwort.</s> <s id="s329">I know the Cystopteris fragilis growing just where it should do, on a long narrow band of limestone; but not wanting it to be all carried away, I refrain from particularising the spot; and I must be equally reticent about the Hymenophyllum, which covers the boulders in some moist places.</s> <s id="s330">The Impatiens is found in abundance in the moist and shady woods.</s> <s id="s331">The lily of the valley abounds in a wood not to be entered without leave.</s> <s id="s332">The globe flowers make the banks gay.</s> <s id="s333">In fact, there are few richer botanical fields than the lower <enamex sw="w54812" long="-3.230911816118457" lat="54.2820732335677" type="ppl" gazref="unlock:16538" name="Duddon Bridge" conf="2.6">Duddon</enamex>.</s> <s id="s334">In Sonnet Vi.</s> <s id="s335">occurs the line--</s></p>
<p><s id="s336">" The trembling eyebright showed her sapphire blue.".</s></p>
<p><s id="s337">Would it have spoiled good poetry to have read instead more truly," the bright germander," as <enamex  sw="w55000" name="Not a placename">Tennyson</enamex> says," her blue germander eye?"</s> <s id="s338">For the eyebright is Euphrasia officinalis, a pretty little white flower with streaks of purple and yellow, and the germander speedwell is certainly the blue flower here meant.</s></p>
<p><s id="s339">Arriving near to <enamex sw="w55236" long="-3.236978659407915" lat="54.2946137796413" type="fac" gazref="unlock:11133275" name="Duddon Hall" conf="2.2">Duddon Hall</enamex>, we cross the <enamex sw="w55262" name="Loggan beck">Loggan beck</enamex>, a tributary of the <enamex sw="w55294" long="-3.230911816118457" lat="54.2820732335677" type="ppl" gazref="unlock:16538" name="Duddon Bridge" conf="2.6">Duddon</enamex>, a stream which, taking its rise in black swamps and spongy moors far up the fells, comes thundering down through cloven rocks and sylvan ferny shades, till it reaches the woods, where, down a bed filled with huge blue-grey boulders, it tears along round one obstacle, and overleaps another with a scornful bound, here curling itself snugly up in calm and silent pools, there rushing off again with a loud roar to dash itself down a miniature precipice; here lovingly encircled by fondly drooping boughs, there throwing itself headlong down a clear and skylit space, and finding at last a brief rest at <enamex sw="w55904" long="-3.409063649548683" lat="54.83205160551944" type="ppl" gazref="unlock:11072993" name="Beckfoot" conf="2.39634672">Beckfoot</enamex> among cottages and homesteads such as an artist loves to paint.</s> <s id="s340">Then again gathering fresh strength below the broken bridge, the <enamex sw="w56042" long="-4.393987934817298" lat="56.97393524773616" type="ppl" gazref="unlock:11187373" name="Kinloch Loggan" conf="1.054015221">Loggan</enamex> leaps at a bound into a deep and narrow chasm darkened with overhanging trees, forming pictures of exquisite beauty.</s> <s id="s341">Then on again with a rush and a vigorous roar, it adds its turmoil and its din to that of the now mighty <enamex sw="w56271" long="-3.230911816118457" lat="54.2820732335677" type="ppl" gazref="unlock:16538" name="Duddon Bridge" conf="2.6">Duddon</enamex>, growing fiercer and stronger by the union to force its way through the deep and awful chasm at <enamex sw="w56374" long="-2.74976" lat="54.29609" type="other" gazref="unlock:5825821" name="Hawes Bridge" conf="1.987694594">Hawes Bridge</enamex>.</s></p>
<p><s id="s342">Immediately below the bridge is a deep glassy pool, Rawfold dub,</s></p>
<p><s id="s343">--" whose depths surpass In crystal clearness Dian's looking-glass;"</s></p>
<p><s id="s344">where the silvery salmon loves to sleep, poised on equal fin.</s></p>
<p> <s id="s345">This crag is also called Worm( i.e., Dragon) Crag.</s></p>
