<?xml version="1.0" encoding="UTF-8"?><document>

<text id="1816_b"><p><s id="s1">About 300 yards beyond <enamex sw="w35" long="-89.66467666625977" lat="39.80154991149902" type="ppla" gazref="unlock:14131447" name="Springfield" conf="1.80171031">Springfield</enamex>, flows the <enamex sw="w58" long="-3.061281518120208" lat="55.02100825183285" type="water" gazref="unlock:8782460" name="Black Sark" conf="2.355508389">Sark</enamex> the boundary stream of <enamex  sw="w86" name="Large admin unit">Scotland</enamex> on the western side; and as soon as the traveller has left the little bridge over behind him, he finds himself once more in <enamex  sw="w219" name="Large admin unit">England</enamex>.</s> <s id="s2">The country now gradually assumes a more picturesque aspect.</s> <s id="s3">The <enamex sw="w293" long="-3.576762628834178" lat="54.74010234959695" type="water" gazref="unlock:11286649" name="Solway Firth" conf="2.191122475">Solway Firth</enamex> appears at a distance, like a stripe of a silver, whilst on the other side the <enamex  sw="w385" name="Large admin unit">Cumberland hills</enamex> spread themselves out to our view.</s> <s id="s4">The road runs here through a very considerable wood of firs and pines, which agreeably reminds us of <enamex  sw="w538" name="Large admin unit">Germany</enamex> and its forests.</s> <s id="s5">Before reaching <enamex sw="w579" long="-2.96338204564023" lat="55.0091956888473" type="ppl" gazref="unlock:22582" name="Longtown" conf="2.555012076">Longtown</enamex> there is a good stone bridge of three arches over the <enamex sw="w642" long="-3.30009716472156" lat="54.3940525814659" type="water" gazref="unlock:8771979" name="River Esk" conf="2.293297618">Esk</enamex>, on which river the town is situated.</s> <s id="s6">The inn at <enamex sw="w695" long="-2.96338204564023" lat="55.0091956888473" type="ppl" gazref="unlock:22582" name="Longtown" conf="2.555012076">Longtown</enamex> has a very showy outside, but little interior accommodation.</s> <s id="s7">From a considerable distance we could perceive the flag waving from the castle at the north end of <enamex sw="w864" long="-2.923743724822998" lat="54.89435005187988" type="ppla" gazref="unlock:14127466" name="Carlisle" conf="3.301918757">Carlisle</enamex>, announcing the birth-day of the Prince Regent( the 12th August).</s> <s id="s8">The interior of the castle by no means corresponds with its external appearance, and its uninclosed state effectually contributes to this unfavourable contrast.</s> <s id="s9">The streets are of a tolerable breadth for a provincial town, and, as every where else, are kept very clean.</s> <s id="s10">Our first visit was to the cathedral, a splendid building, which, however, is greatly <enamex sw="w1295" long="-2.421557122390574" lat="53.29060765310844" type="civil" gazref="unlock:13406245" name="Tabley Inferior CP" conf="1.233584504">inferior</enamex> in external splendour to those in the south and east of England. It may be considered as composed of two parts, the ancient and the more recent.</s> <s id="s11">The first, or eastern part, evidently goes back to the Saxon times; whilst the latter, which was destroyed in the civil war, and has since been rebuilt, bears the marks of recent origin.</s> <s id="s12">We found it open, and the canons engaged in the forenoon service, singing an anthem for four voices, in which they were assisted by the choristers, ande accompanied by the organ, which however was unfortunately so dreadfully out of tune, that we congratulated ourselves on not having entered the church until the service was nearly ended.</s> <s id="s13">The large window opposite to the entrance is only half filled with old painted glass, the lower part being of plain glass, with a painted border round it.</s> <s id="s14">The partition wall between the side-aisles and the nave of the church is painted with the figures of saint anthony, saint <enamex sw="w2251" long="-59.14653587341309" lat="51.4610652923584" type="water" gazref="unlock:14128122" name="Rivire Saint-Augustin Nord-Ouest" conf="0.6363616693">Augustin</enamex>, and other Saints, in water colours, with several inscriptions in the old English language under Them, which were unable to decypher.</s> <s id="s15">There are several monuments between the pillars and in other places.</s></p>
<p><s id="s16">The saxon part of the church has still to beast of the grandeur of its immense pillars and round arches.</s> <s id="s17">Qwe found the castle guarded by a detachment of dragoons.</s> <s id="s18">Our attention was caught on our entrance by a massy square tower to the right of the gate, and a strong iron portcullis which was lowered seemed threatening to close against us.</s> <s id="s19">The inner court forms a spacious square, in which stands the commandant's house, two stories high, a modern built house in the form of a temple.</s> <s id="s20">We soon perceive that the castle is half in ruins, and even that part, which is still entire, and which is not shown, is used merely for keeping military stores.</s> <s id="s21">One single six - pounder lying on the ground, appeared to represent the whole of the castle artillary.</s> <s id="s22">The court-house of the country, built according to a peculiar plan, and certainly unique in its kind, is situated in the southern part of the city: it consists of two square buildings of the same form on both sides of <enamex sw="w3430" long="-2.550537094982595" lat="51.15293732249635" type="ppl" gazref="unlock:11294325" name="Street on the Fosse" conf="1.280639826">the street</enamex>, having very large round battlemented towers, containing the courts of justice.</s> <s id="s23">The form of the building is this: A the finished, B the unfinished building; C <enamex sw="w3600" long="-2.550537094982595" lat="51.15293732249635" type="ppl" gazref="unlock:11294325" name="Street on the Fosse" conf="1.280639826">the street</enamex>; D the projected arch; E E the towers.</s> <s id="s24">Both buildings are, when completed, to be connected by an arch over <enamex sw="w3718" long="-2.550537094982595" lat="51.15293732249635" type="ppl" gazref="unlock:11294325" name="Street on the Fosse" conf="1.280639826">the street</enamex>.</s> <s id="s25">The one to the left is completed, but the outside only of that on the right is yet finished.</s> <s id="s26">The whole is, as we might naturally expect, in the Gothic style.</s> <s id="s27">The walls of the town, especially on the western side, are still in tolerable good condition, especially on the western side, so as to afford a pleasant walk along the rampants.</s> <s id="s28">They were formerly double, and the remains of them and of an old tower are still visible; it is now modenized and appropriated as a building belonging to the deanery.</s> <s id="s29">The bridges over the Eden, which runs through a part of the city, are very ancient, very steep, and narrow; and are quite eclipsed by the handsome new stone bridge of six arches, which is crossed on the road to <enamex sw="w4444" long="-2.96338204564023" lat="55.0091956888473" type="ppl" gazref="unlock:22582" name="Longtown" conf="2.555012076">Longtown</enamex>; and has lately been opened for passangers, although not yet entirely finished.</s> <s id="s30">The deanery above-mentioned is a handsome Gothic building, with a large court closed in all sides, covered with gravel, and a garden immediately before the house.</s> <s id="s31">The back part of the cathedral, which forms one side of this court, has a far more pituresque appearance than that part fronting <enamex sw="w4825" long="-2.550537094982595" lat="51.15293732249635" type="ppl" gazref="unlock:11294325" name="Street on the Fosse" conf="1.280639826">the street</enamex>, and is distinguished by a great profusion of ornamented buttresses.</s> <s id="s32">We would recommend our inn to travellers, as from its windows we have an admirable view over a garden opposite to The house, of the country round <enamex sw="w5051" long="-2.923743724822998" lat="54.89435005187988" type="ppla" gazref="unlock:14127466" name="Carlisle" conf="3.301918757">Carlisle</enamex> for several miles.</s></p>
<p> <s id="s33">This road is probably a great thoroughfare for cattle, as at several places on it we found semicircular inclosures formed for collecting water, and into which the cattle are driven to drink.</s></p>
<p><s id="s34">On the road to <enamex sw="w5286" long="-2.749628438755928" lat="54.66475192978902" type="ppl" gazref="unlock:11038" name="Penrith" conf="2.510206702">Penrith</enamex>( which we took for the purpose of making a tour to the lakes in <enamex  sw="w5358" name="Large admin unit">Cumberland</enamex> and <enamex  sw="w5373" name="Large admin unit">Westmorland</enamex>), we fell in with large droves of cattle, consisting for the most part of young oxen, proceeding from the <enamex sw="w5491" long="-4.71" lat="57.12" type="other" gazref="unlock:4571334" name="Scottish Highlands" conf="0.5134452255">Highlands of Scotland</enamex> to the pastures of the south, for the purpose of being fattened.</s> <s id="s35">Lap Lane, a large farm-house, consisting of several extensive buildings, belonging to the duke of <enamex  sw="w5676" name="Large admin unit">Devonshire</enamex>, with the house connected with it, all built in the same style with flat slate roofs and yellow painted walls, has a very splendid appearance at a distance.</s> <s id="s36">Before reaching <enamex sw="w5860" long="-2.749628438755928" lat="54.66475192978902" type="ppl" gazref="unlock:11038" name="Penrith" conf="2.510206702">Penrith</enamex>, on a high hill to the left of the road, we perceive an old tower, called <enamex sw="w5942" long="-2.744010531" lat="54.67519654" type="manual update" gazref="ZZSH00131" name="Penrith Beacon" conf="99992">Penrith Beacon</enamex>, which formerly served as a beacon or watch tower, and from which there is an excellent view of the surrounding country.</s> <s id="s37">The town itself bears in the appearance of its houses, traces of great antiquity.</s> <s id="s38">We found it very animated in consequence of its market.</s> <s id="s39">The greatest curiosity in the place is the giant's grave, in the church-yard, close to the church, which has been so often described.</s> <s id="s40">There are two sand-stone pillars of eleven feet and a half in height, round at the tower end, but square at the top, and terminating in a point, which has suffered from the influence of the weather and time, and on which the marks of a carved cross are still perceptible.</s> <s id="s41">They are fifteen feet from each other.</s> <s id="s42">Between them, four elliptical stones, with ornaments almost wholly destroyed by time, rise out of the earth, and have the appearance of marking out lengthwise, the limits of a long grave.</s> <s id="s43">The church itself has been rebuilt in latter times on the old foundation.</s> <s id="s44">The castle, situated without the town, is a quadrangular building, of which the walls on the south side are all that now remains.</s> <s id="s45">Richard Iii.</s> <s id="s46">Frequently resided in it.</s> <s id="s47">Buildings for cattle have lately been fitted up in the ruins.</s></p>
<p><s id="s48">From <enamex sw="w7159" long="-2.749628438755928" lat="54.66475192978902" type="ppl" gazref="unlock:11038" name="Penrith" conf="2.510206702">Penrith</enamex> we proceeded to <enamex sw="w7183" long="-2.812994518069897" lat="54.61280820901722" type="ppl" gazref="unlock:11248058" name="Pooley Bridge" conf="2.6">Pooley</enamex>, a little village at the northern end of the lake of Ulleswater, where we found a good inn, and the necessary conveniencies for an excursion on the lake.</s> <s id="s49">We had been told that this was the best way to enjoy the beauties of the scenery of the lake; and I am inclined to believe, that a journey by land along the southern bank may be less interesting, although from the comparative rapidity of the progress which may be made by land, much more of the lake might probably have been seen in the same space of time in that way than was seen by us.</s></p>
<p><s id="s50">The road to <enamex sw="w7745" long="-2.812994518069897" lat="54.61280820901722" type="ppl" gazref="unlock:11248058" name="Pooley Bridge" conf="2.6">Pooley</enamex> runs through a fertile and well cultivated country.</s> <s id="s51">As we approach the village the banks of the lake begin to rise and to appear before us in their beauty.</s> <s id="s52">The walk along the banks to the place where the boats are stationed is highly agreeable.</s> <s id="s53">Opposite to us the verdant northern shore, embellished by a succession of country seats, rises in the form of an amphitheatre.</s> <s id="s54">At the entrance of the lake stands the lofty and well wooded Helwellyn, at the foot of which a handsome bridge over the Emont leads into <enamex  sw="w8261" name="Large admin unit">Cumberland</enamex>, whilst the gray rocks rising above each other in the most picturesque manner, beneath which the road winds along, bound the southern side of the river.</s> <s id="s55">Our boat, with the assistance of the current, carried us rapidly along the calm and crystal lake, past the elegant houses, the white walls of which appear through the fruit and flower-gardens that surround them, and add greater beauty and harmony to the scene.</s> <s id="s56">We will not attempt to deny that we heartily envied Messrs. Stay, Scott, and Marshall, for their mansions.</s> <s id="s57">The last-mentioned individual is said to have purchased his house with a piece of land worth 20,000, for a very small sum from the duke of <enamex  sw="w8932" name="Large admin unit">Norfolk</enamex>, a few years ago, at a moment when his grace had become liberal over the bottle.</s> <s id="s58">The house is situated in a group of trees on a point of land, where the lake forms, toward its middle, a strong bend to the north-west; and consequently affords a double prospect, whilst the other mansions only have a view of one half of the lake.</s> <s id="s59">We landed not far from it, to view Liulph's tower, a hunting lodge belong to the duke of <enamex  sw="w9358" name="Large admin unit">Norfolk</enamex>, which is situated on the highest point of the shore.</s> <s id="s60">It bears a perfect resemblance to an ancient castle, and contains some handsome apartments, from which there is a beautiful view of the lake.</s> <s id="s61">Behind and beside it, there is an extensive park, called Gowbarrow park, where fallow-deer are seen feeding in peaceful union with black cattle.</s> <s id="s62">In the garden the <enamex sw="w9725" long="-1.867369564314708" lat="54.92104239480536" type="fac" gazref="unlock:11057634" name="Airey Hill Fm" conf="0.9855284453">Airey</enamex> forms the water-fall of <enamex sw="w9755" long="-2.936" lat="54.576" type="manual update" gazref="unlock:11057415" name="Aira Force" conf="99992">Airey Force</enamex>, which although somewhat picturesque( as it is about sixty feet in height), foes not produce any great effect, as the mass of water is not sufficiently large.</s> <s id="s63">There is a small wooden bridge over the lower part of the fall, from which we can see the stream dashing past us.</s> <s id="s64">We were very much inclined to have proceeded towards <enamex sw="w10093" long="-2.938607921075117" lat="54.53595761254276" type="ppl" gazref="unlock:37283" name="Patterdale" conf="2.6">Patterdale</enamex>, on the western part of the lake, which is said to contain most beautiful views; but we wished to return in good time to <enamex sw="w10225" long="-2.749628438755928" lat="54.66475192978902" type="ppl" gazref="unlock:11038" name="Penrith" conf="2.510206702">Penrith</enamex>, in order to quit it at an early hour next morning.</s> <s id="s65">We therefore turned back about four o'clock, favoured with the most delightful weather.</s> <s id="s66">The lake was smooth as a mirror; the mountains, among which <enamex sw="w10433" long="-3.043402327204126" lat="54.53913510713601" type="water" gazref="unlock:11169754" name="Helvellyn Gill" conf="2.4">Helvellyn</enamex> majestically raised his mighty head, were lighted up by the rays of the evening sun, and the pleasant dwelling-houses on the banks of the lake, surrounded with meadows of the softest green, and fruitful fields, were re - flected on the peaceful bosom of the lake.</s> <s id="s67">At six o'clock we arrived at <enamex sw="w10735" long="-2.812994518069897" lat="54.61280820901722" type="ppl" gazref="unlock:11248058" name="Pooley Bridge" conf="2.6">Pooley</enamex>, and by seven we were again at <enamex sw="w10773" long="-2.749628438755928" lat="54.66475192978902" type="ppl" gazref="unlock:11038" name="Penrith" conf="2.510206702">Penrith</enamex>.</s></p>
<p> <s id="s68">We unfortunately neglected to bear the celebrated echo of Ulleswater, in which the original sound is repeated seven or eight times, and for the enjoyment of which a small cannon is planted on the banks of the lake that may be fired of for a couple of shillings.</s></p>
<p><s id="s69">Chap.</s> <s id="s70">Xii.</s>
</p>
<p> <s id="s71"><enamex sw="w11058" long="-1.683939854346278" lat="54.49795383225262" type="ppl" gazref="unlock:35385" name="Aldbrough St John" conf="1.323698966">St. John</enamex>'s vale-- The Druid's temple-- <enamex sw="w11096" long="-3.125370693283439" lat="54.60160037173823" type="ppl" gazref="unlock:10824" name="Keswick" conf="2.6">Keswick</enamex>-- <enamex sw="w11105" long="-3.1588" lat="54.6018" type="other" gazref="unlock:5828527" name="Derwentwater Hotel" conf="2">Derwentwater</enamex>-- The Islands-- Fall of <enamex sw="w11140" long="-3.13662933748405" lat="54.55627196668239" type="water" gazref="unlock:11204948" name="Lodore Falls" conf="2.4">Lodore</enamex>-- <enamex sw="w11148" long="-3.1552" lat="54.547" type="manual update" gazref="Norgate_ID_NY25371747" name="Grange Bridge" conf="99992">The Grange Bridge</enamex>-- Borrow Dale-- The <enamex sw="w11186" long="-3.1516" lat="54.5382" type="manual update" gazref="unlock:11084123" name="Bowder Stone" conf="99992">Bowther</enamex> Stone-- Road along the Rocks-- Return to <enamex sw="w11233" long="-3.125370693283439" lat="54.60160037173823" type="ppl" gazref="unlock:10824" name="Keswick" conf="2.6">Keswick</enamex>-- Mr. Green's Exhibition-- The Poet Southey-- His Library-- <enamex sw="w11297" long="-3.020927713122514" lat="54.46105068867795" type="ppl" gazref="unlock:31171" name="Grasmere" conf="2.6">Grasmere</enamex>-- <enamex sw="w11307" long="-2.993866462466064" lat="54.44746550347175" type="water" gazref="unlock:8796733" name="Rydal Water" conf="2.4">Rydal Water</enamex>-- <enamex sw="w11320" long="-2.96358681023542" lat="54.4319364520582" type="ppl" gazref="unlock:11061737" name="Ambleside" conf="2.6">Ambleside</enamex>-- <enamex sw="w11331" long="-2.9344" lat="54.373" type="manual update" gazref="Geoname_ID_2633852" name="Lake Windermere" conf="99992">Winandermere</enamex>-- <enamex sw="w11345" long="-3.0765" lat="54.3361" type="manual_update"  gazref="Geoname_ID_2653454" name="Coniston Water" conf="99991">Coniston Lake</enamex>-- <enamex sw="w11360" long="-2.977291334332336" lat="54.3599180438576" type="water" gazref="unlock:11140740" name="Esthwaite Water" conf="2.4">Esthwaite Water</enamex> <enamex sw="w11376" long="-2.915738676011205" lat="54.36040070757029" type="ppl" gazref="unlock:11084353" name="Bowness-On-Windermere" conf="2.6">Bowness</enamex>-- Curwen's Island and pavilion-- <enamex sw="w11415" long="-2.430426782171715" lat="53.57208890145878" type="ppl" gazref="unlock:11082597" name="Bolton" conf="2.104836681">Bolton</enamex>'s Villa-- The Station-- <enamex sw="w11444" long="-2.745809060481465" lat="54.32561646560368" type="ppl" gazref="unlock:11185036" name="Kendal" conf="3.055827238">Kendal</enamex>.</s></p>
<p><s id="s72">From <enamex sw="w11457" long="-2.749628438755928" lat="54.66475192978902" type="ppl" gazref="unlock:11038" name="Penrith" conf="2.510206702">Penrith</enamex> we proceeded to <enamex sw="w11481" long="-3.125370693283439" lat="54.60160037173823" type="ppl" gazref="unlock:10824" name="Keswick" conf="2.6">Keswick</enamex>, in the vicinity of <enamex sw="w11509" long="-3.1588" lat="54.6018" type="other" gazref="unlock:5828527" name="Derwentwater Hotel" conf="2">Derwentwater</enamex>.</s> <s id="s73">The road runs through the very romantic vale of <enamex sw="w11571" long="-1.683939854346278" lat="54.49795383225262" type="ppl" gazref="unlock:35385" name="Aldbrough St John" conf="1.323698966">St. John</enamex>, a glen surrounded on all sides by high mountains, leading to a somewhat desert plain, where we saw, at a great distance to the right <enamex sw="w11714" long="-2.876952675" lat="54.66990341" type="manual update" gazref="ZZSH00160" name="Greystoke Castle" conf="99992">Graystock Castle</enamex>, the half of which seems to consist partly of the remains of an ancient edifice, and the other half of the modern building.</s></p>
<p><s id="s74">Notwithstanding all our endeavours, we could not discover any traces of the Roman camp near <enamex sw="w11947" long="-2.937068695763348" lat="54.6208997034264" type="mtn" gazref="unlock:11159035" name="Great Mell Fell" conf="2.4">Mell Fell</enamex>, which was marked on our map; but we were perhaps on the account the more struck with the Druidical temple, situated to the left of the road.</s> <s id="s75">It consists in all of thirty - six stones, of different sizes, placed at due distances from each other so as to form a perfect circle; and within the circle a square is formed by some other stones, which come in contact with one part of it.</s> <s id="s76">All the stones are of the greenish Wacke kind, which is abundant in these parts.</s></p>
<p><s id="s77">As soon as we had taken up our quarters in <enamex sw="w12462" long="-3.125370693283439" lat="54.60160037173823" type="ppl" gazref="unlock:10824" name="Keswick" conf="2.6">Keswick</enamex>, we hired a post chaise for an excursion round the lake.</s> <s id="s78">Its environs are uncommonly wild and picturesque.</s> <s id="s79">We saw it first from the eastern side, where it spreads itself out between its islands, and does not appear to be above three or four miles in length, which agrees with the reality.</s> <s id="s80">The view of these beautiful islands, five in number, which appear like so many inviting resting places scattered over its surface, is truly grand.</s> <s id="s81">They are all covered with wood, and afford one of the most lovely prospects imaginable.</s> <s id="s82">On the other side of the lake, the mountains rise in an amphitheatrical form, with every gradation of shade caused by their distance, or the lighter or darker colour of the woods with which they are covered.</s> <s id="s83">The waters which form the first considerable fall, that bears the name of barrow Fall, trickle down the sides of the mountains along which we proceed.</s> <s id="s84">The fall itself is very pretty, but unfortunately, it is concealed by too much brush-wood.</s> <s id="s85">Barrow hall, the very elegant seat of Mr. Pocklington, built among the rocks by which it is shaded, is situated near to the fall.</s> <s id="s86">Beside it we perceive the celebrated Fall of <enamex sw="w13619" long="-3.13662933748405" lat="54.55627196668239" type="water" gazref="unlock:11204948" name="Lodore Falls" conf="2.4">Lodore</enamex>.</s> <s id="s87">It is principally remark - able on account of its being impeded in its course by innumerable rocks and stones, thrown in its way by the hand of nature: over these it precipitates itself in numerous little streams, and hurries on to the lake.</s> <s id="s88">Nature is very romantic round this fall, which has its source in the chain of mountains forming the eastern boundary of the lake.</s> <s id="s89">On all sides it is over-hung by pines and firs, and the hand of art has neither added to nor detracted from the beauty of the scene.</s> <s id="s90">Here too we can conveniently clamber over the rocks which lie in it, and, as at <enamex sw="w14211" long="-3.577356298549408" lat="56.55989234732959" type="ppl" gazref="unlock:18017" name="Little Dunkeld" conf="1.186690879">Dunkeld</enamex>, we had a peculiar pleasure in seating ourselves on an elevated one in the middle of the fall, and seeing the water raging past us on all sides.</s> <s id="s91">At a small distance from this we cross <enamex sw="w14403" long="-3.1552" lat="54.547" type="manual update" gazref="Norgate_ID_NY25371747" name="Grange Bridge" conf="99992">the Grange bridge</enamex>, over the River <enamex sw="w14437" long="-3.137630072408776" lat="54.59221629737263" type="rgn" gazref="unlock:11128985" name="Derwent Isle" conf="2.4">Derwent</enamex>, which falls into the lake, whence we have a noble view of this body of water; which with all its islands, lies stretched out before us in its whole extent from north to south.</s> <s id="s92">A little islet, thickly covered with trees, seems to repose on the bosom of the lake, close to the bridge, and appears to have been brought thus near to the point of view, that we might examine it more attentively.</s> <s id="s93">We now enter the gloomy vale of Borrow Dale, a ravine in which, surrounded by high rocks, we can see nothing but rocks and cliffs in every direction.</s> <s id="s94">To the right lies <enamex sw="w15005" long="-3.162071998" lat="54.53278308" type="manual_update"  gazref="ZZSH00025" name="Castle Crag" conf="99991">Castle Craig</enamex>, a rock partly covered with wood; from the top of which there is said to be an extensive prospect over the valley.</s> <s id="s95">Opposite to this rock, and in the valley itself, lies the <enamex sw="w15191" long="-3.1516" lat="54.5382" type="manual update" gazref="unlock:11084123" name="Bowder Stone" conf="99992">Bowther</enamex> Stone, a piece of rock, which has probably at some former period detached itself from the neighbouring rocks, and rushed down into the valley.</s> <s id="s96">It is sixty - two feet in length, thirty - six feet high, and eighty - nine feet in circumference.</s> <s id="s97">By means of a ladder fixed against its side we are enabled to reach its top, and we could not resist the desire of ascending it.</s> <s id="s98">The position of this stone is singular.</s> <s id="s99">It has fallen on one of its corners, on which it now stands, like a die resting on one of its angles.</s></p>
<p> <s id="s100">The black lead mine in Borrow Dale, which in order to keep the lead scarce, was only occasionally opened, is said to be now quite exhausted; at least we were told so by our postillion.</s></p>
<p><s id="s101">On our return from Borrow Dale, we crossed the <enamex sw="w15939" long="-3.137630072408776" lat="54.59221629737263" type="rgn" gazref="unlock:11128985" name="Derwent Isle" conf="2.4">Derwent</enamex>, on the opposite bank of which we found an elegant little house entirely overgrown with ivy; before it a pretty little garden full of beautiful roses, fronting the high road.</s> <s id="s102">The road along the western side of the lake proceeds close to the rocks, so that we saw the lake at a great depth below us; before us we saw only a narrow space obtained from the rocks, scarcely sufficient for a carriage.</s> <s id="s103">The view of the whole landscape from this part is indescribably sublime and beautiful.</s> <s id="s104">Opposite to us rise the black gray rocks, towering up on the west side of the lake, which towards the south approach closely to each other, and form the Borrow Dale.</s> <s id="s105">Below gleams the lake, with all the islands on its bosom; further on we perceive the white houses of the delightful <enamex sw="w16713" long="-3.125370693283439" lat="54.60160037173823" type="ppl" gazref="unlock:10824" name="Keswick" conf="2.6">Keswick</enamex>, and the lake of <enamex sw="w16738" long="-3.193601937631324" lat="54.67926476125776" type="ppl" gazref="unlock:15906" name="Bassenthwaite" conf="2.6">Bassenthwaite</enamex>, formed by the River <enamex sw="w16773" long="-3.137630072408776" lat="54.59221629737263" type="rgn" gazref="unlock:11128985" name="Derwent Isle" conf="2.4">Derwent</enamex>, spreads itself out in the distance.</s> <s id="s106">We must not omit to mention that on this road we passed an inn, having for a sign the picture of our brave <enamex  sw="w16925" name="Not a placename">Blucher</enamex>, with all his orders.</s></p>
<p> <s id="s107">One of the most distinguished painters in water-colours in <enamex sw="w17015" long="-0.08573711413610305" lat="51.48768230024373" type="civila" gazref="unlock:13326794" name="Greater London Authority" conf="2.599854406">London</enamex>.</s></p>
<p> <s id="s108">We are in possession of a poem full of fancy, by this lady, against a favourite poet of English nation, whose moral character is liable to many objections, and whom she has very happily characterised.</s></p>
<p><s id="s109">We arrived at <enamex sw="w17239" long="-3.125370693283439" lat="54.60160037173823" type="ppl" gazref="unlock:10824" name="Keswick" conf="2.6">Keswick</enamex> between four and five o'clock, and immediately proceeded to visit Mr. Green's exhibition, in a house with a steeple something like a church, in the middle of the town.</s> <s id="s110">The whole consists of one large hall, divided into the exhibition chamber and the work-shop: the first is filled with landscapes in oil and water-colours, and with coloured plates representing views of the lakes and their environs: the water-colour drawings are in the manner of Varley's, but very much <enamex sw="w17718" long="-2.421557122390574" lat="53.29060765310844" type="civil" gazref="unlock:13406245" name="Tabley Inferior CP" conf="1.233584504">inferior</enamex> to them.</s> <s id="s111">Several of these drawing were executed by Mr. Green's daughter, who, like all his children, is obliged to assist him in colouring the landscapes which he engraved.</s> <s id="s112">We availed ourselves of our stay at <enamex sw="w17936" long="-3.125370693283439" lat="54.60160037173823" type="ppl" gazref="unlock:10824" name="Keswick" conf="2.6">Keswick</enamex> to introduce ourselves to the celebrated Robert Southey, the poet laureate.</s> <s id="s113">Without being provided with a letter of introduction to him, as is customary in <enamex  sw="w18100" name="Large admin unit">England</enamex>, I went straight to his house, which is situated at the extremity of the town, and close to the bridge over the Greta.</s> <s id="s114">He received me at first, as I thought, with some embarrassment, which after a quarter of an hour's conversation, gave way to a most agreeable frankness, that never left him for a moment till I parted.</s> <s id="s115">I was introduced by him to a Mrs. Barker and her family, who are his near neighbours, and with whom he appears to be on the most friendly footing; Mr. Koster, a young gentleman of Dutch extraction, born in <enamex sw="w18634" long="-9.1333333" lat="38.7166667" type="pplc" gazref="geonames:2267057" name="Lisbon" conf="2.011185459">Lisbon</enamex>, and educated in <enamex  sw="w18658" name="Large admin unit">Brazils</enamex>, whose father is at the head of a considerable mercantile house at <enamex sw="w18733" long="-2.878238320350647" lat="53.5225887298584" type="ppla" gazref="unlock:14131229" name="Liverpool" conf="2.380693463">Liverpool</enamex>, made one of the company.</s> <s id="s116">This gentleman lives with Mr. Southey, of whose society he availed himself, with the view of literary improvement.</s> <s id="s117">He is the person whose travels in <enamex  sw="w18918" name="Large admin unit">Brazil</enamex> have been several times translated in <enamex  sw="w18963" name="Large admin unit">Germany</enamex>.</s> <s id="s118">We expressed a wish to Mr. Southey, to become acquainted with his library, which had been described to us as exceedingly rich, he did not hesitate a moment to gratify it; and I must confess that my expectations have seldom been so far surpassed.</s> <s id="s119">The collection consists of between 3 and 4000 volumes of the most select works in the Spanish and Portuguese languages, in the departments of history, statistics, and voyages and travels, of which the last mentioned are partly the fruits of a literary journey in <enamex  sw="w19481" name="Large admin unit">Spain</enamex> and <enamex  sw="w19491" name="Large admin unit">Portugal</enamex>, and partly the legacy of an uncle who bequeathed to him the works collected by him while chaplain to the English factory at <enamex sw="w19625" long="-9.1333333" lat="38.7166667" type="pplc" gazref="geonames:2267057" name="Lisbon" conf="2.011185459">Lisbon</enamex>.</s> <s id="s120">Mr. Southey's library does not contain merely printed books, but also manuscripts, both of histories and itineraries, of many of which he has already in part availed himself, in his classical work on the history of <enamex  sw="w19849" name="Large admin unit">Brazil</enamex>.</s> <s id="s121">I shall always consider the pleasant evening I passed in Mr. Southey's family, as one of the most happy sections of our tour, more especially as I obtained this piece of good fortune without any introduction to, or any previous acquaintance with that celebrated man.</s></p>
<p> <s id="s122">See his" Letters written during a Journey in <enamex  sw="w20170" name="Large admin unit">Spain</enamex>, and a short residence in <enamex  sw="w20202" name="Large admin unit">Portugal</enamex>."</s> <s id="s123"><enamex sw="w20213" long="-0.08573711413610305" lat="51.48768230024373" type="civila" gazref="unlock:13326794" name="Greater London Authority" conf="2.599854406">London</enamex>, 1808.</s></p>
<p> <s id="s124">Among the manuscripts, the following I conceive are deserving of particular mention, as curious and remarkable.</s> <s id="s125">" Relaciones de Taboada" 4 vols.</s> <s id="s126"><enamex sw="w20372" long="-72.03240752400001" lat="48.050091885" type="other" gazref="unlock:5253683" name="Lac du Fol Orignal" conf="0.2471627672">Fol</enamex>.</s> <s id="s127">Taboada was Spanish Ambassador at the court of Louis Xiv., and the Relaciones are said to contain very important information respecting the history of that monarch's reign.</s> <s id="s128">The Letters of <enamex sw="w20565" long="-41.5" lat="-15.95" type="other" gazref="unlock:5090855" name="André Fernandes" conf="0.04535245617">Andre Fernandes</enamex> to Louis de Souza, of a political nature, and all the original papers with the seals on them.</s> <s id="s129">Papeis Politicos 9 vols.</s> <s id="s130">Fol.; a Collection of Miscellaneous Political Essays, by Mr. Southey, called the Pinheiro Collection-- da Cunha Cronica de Joao I. Edicts relating to the working of the Mines in <enamex  sw="w20877" name="Large admin unit">Brazil</enamex>, one of them dated <enamex sw="w20903" long="-84.9132743" lat="33.7117747" type="other" gazref="unlock:6978098" name="Villa Rica Water Works Lake" conf="0.6629548704">Villa Rica</enamex> 1744.</s> <s id="s131">Report relative to the discovery of the <enamex sw="w20960" long="-75.85917000000001" lat="2.43028" type="other" gazref="unlock:5522089" name="Río de La Plata" conf="0.4233082772">Rio de la Plata</enamex>, by Ruiz Diez de Gusman: an unedited journal of a voyage of great importance, of which Mr. Southey has availed himself in his history of <enamex  sw="w21113" name="Large admin unit">Brazil</enamex>.</s> <s id="s132">A copy of the highly important collection of Portuguese ballads, which are attributed to King Dinis and which are preserved in the Collegio dos <enamex sw="w21265" long="-55.7750091029412" lat="-14.3857802070136" type="other" gazref="unlock:5114483" name="Nobres" conf="0">Nobres</enamex>, at <enamex sw="w21276" long="-9.1333333" lat="38.7166667" type="pplc" gazref="geonames:2267057" name="Lisbon" conf="2.011185459">Lisbon</enamex>( Bouterweck, Gesch. d. Port. Poesie, p. 11.) It has neither beginning nor end; the first ballad is marked No. 41, and the last No. 108.</s> <s id="s133">La Filis de Fonseca <enamex sw="w21438" long="-45.7" lat="-21.2833333" type="other" gazref="unlock:5089926" name="Augusto Soares" conf="0.1088893993">Soares</enamex>( Antonio de Chagas) in ottave rime.</s> <s id="s134">Viriadas del Douter Isaac de Sequeyra Samudo.-- Sequis divina Poema tragic de Jono Hyacinte.</s> <s id="s135">-- Henriquez.-- Elisterin del <enamex sw="w21602" long="-77.9238841" lat="38.7592831" type="other" gazref="unlock:7496653" name="Conde" conf="0.6394887356">Conde</enamex> <enamex sw="w21608" long="-116.6057425" lat="47.7357408" type="other" gazref="unlock:8333028" name="Fernan Saddle" conf="0.4751772078">Fernan</enamex> <enamex  sw="w21615" name="Not a placename">Gonzalez</enamex>; a transcript of a Ms. In the <enamex sw="w21654" long="-5.910675766549" lat="39.1880177447907" type="other" gazref="unlock:5717087" name="Escurial" conf="0.3635164206">Escurial</enamex>, certified in a few lines by <enamex  sw="w21692" name="Not a placename">Gonzalez</enamex>, the present librarian of the <enamex sw="w21731" long="-5.910675766549" lat="39.1880177447907" type="other" gazref="unlock:5717087" name="Escurial" conf="0.3635164206">Escurial</enamex> for authentic.</s></p>
<p> <s id="s136">The History of <enamex  sw="w21771" name="Large admin unit">Brazil</enamex>, vol.</s> <s id="s137">1,2.</s> <s id="s138"><enamex sw="w21789" long="-84.3946485" lat="33.6667754" type="other" gazref="unlock:6939592" name="Crawford Lond Middle School" conf="0.7807633088">Lond</enamex>.</s> <s id="s139">1810-17, 4 te.</s></p>
<p><s id="s140">On the 15th of August we left <enamex sw="w21840" long="-3.125370693283439" lat="54.60160037173823" type="ppl" gazref="unlock:10824" name="Keswick" conf="2.6">Keswick</enamex>, and from the hill in the neighbourhood of the town, cast a last melancholy parting look on the noble lake and its environs, which appeared crowded around it as in a picture.</s> <s id="s141">Passing the grave of the last king of <enamex  sw="w22061" name="Large admin unit">Cumberland</enamex>, said to be distinguishable by a heap of stones, called Dunmaile <enamex sw="w22137" long="-2.926489460396839" lat="54.8366934638748" type="ppl" gazref="unlock:11293048" name="Stone Raise" conf="2.517173487">Raise</enamex>, not far from the road, we came to a ravine, enclosed on both sides by rocks, down whose sides fell numberless streamlets, preparing us for the view of the lovely <enamex sw="w22306" long="-3.020927713122514" lat="54.46105068867795" type="ppl" gazref="unlock:31171" name="Grasmere" conf="2.6">Grasmere</enamex>, which although one of the least and most inconsiderable, may nevertheless be considered among the most beautiful and picturesque of the lakes.</s> <s id="s142">It lies in a bottom formed by high mountains, as if secluded from the rest of the world; and its lovely verdant shores, and the little thickly wooded islet in its centre, have charms for those only, who know how to prize its beauties.</s> <s id="s143">Mr. Johnson's house, a pretty little villa, on its western bank, enjoys a situation which has few equals.</s> <s id="s144">From <enamex sw="w22805" long="-3.020927713122514" lat="54.46105068867795" type="ppl" gazref="unlock:31171" name="Grasmere" conf="2.6">Grasmere</enamex>, the road leads to another little lake, called <enamex sw="w22861" long="-2.993866462466064" lat="54.44746550347175" type="water" gazref="unlock:8796733" name="Rydal Water" conf="2.4">Rydal Water</enamex>, connected with <enamex sw="w22889" long="-3.020927713122514" lat="54.46105068867795" type="ppl" gazref="unlock:31171" name="Grasmere" conf="2.6">Grasmere</enamex> by a narrow natural canal.</s> <s id="s145">Being less secluded than <enamex sw="w22950" long="-3.020927713122514" lat="54.46105068867795" type="ppl" gazref="unlock:31171" name="Grasmere" conf="2.6">Grasmere</enamex>, <enamex sw="w22960" long="-2.993866462466064" lat="54.44746550347175" type="water" gazref="unlock:8796733" name="Rydal Water" conf="2.4">Rydal Water</enamex> appears to be more related to the world, and more bustling.</s> <s id="s146">Two islands rise above the surface of this lake, and two waterfalls attract our attention, both of which descend from the hills at a small distance from an elegant villa on the banks of the lake, formerly belonging to Sir Peter le <enamex  sw="w23263" name="Not a placename">Fleming</enamex>, but now in possession of a Mr. Crump, of <enamex sw="w23313" long="-2.878238320350647" lat="53.5225887298584" type="ppla" gazref="unlock:14131229" name="Liverpool" conf="2.380693463">Liverpool</enamex>.</s> <s id="s147">Not far from <enamex sw="w23337" long="-2.97943049851992" lat="54.44978599662359" type="ppl" gazref="unlock:11275806" name="Rydal" conf="2.6">Rydal</enamex>, there is a considerable slate quarry, belonging to Lord Lonsdale, which supplies the adjoining country with slates for roofs.</s> <s id="s148">They appear to me to be of a greener hue than those of our country.</s></p>
<p> <s id="s149">Here Mr. Southey's friend, the well known poet, Wm.</s> <s id="s150">Wordsworth resides.</s> <s id="s151">The peculiar characteristic of his poetry is its great simplicity.</s></p>
<p><s id="s152"><enamex sw="w23678" long="-2.96358681023542" lat="54.4319364520582" type="ppl" gazref="unlock:11061737" name="Ambleside" conf="2.6">Ambleside</enamex>, from its situation, appearance, and accommodations, will always hold the first rank among the places on the <enamex  sw="w23797" name="Large admin unit">Cumberland lakes</enamex>.</s> <s id="s153">The houses themselves, which lie behind and beside each other in a certain irregular order, from the simplicity of their structure, their flat roofs, and their cleanliness, forcibly remind us of the villages in <enamex  sw="w24026" name="Large admin unit">Switzerland</enamex>; and the vicinity of the lake of <enamex sw="w24071" long="-2.9344" lat="54.373" type="manual update" gazref="Geoname_ID_2633852" name="Lake Windermere" conf="99992">Winandermere</enamex> contributes to render this delightful illusion still more perfect.</s></p>
<p><s id="s154">After having taken some refreshments in the salutation inn, we drove immediately down to the lake, from the northern extremity of which we enjoyed a most delightful view of its pleasant shores and the islands with which it is covered; the view as its southern extremity, is less picturesque.</s> <s id="s155">In order to have also a view of <enamex sw="w24475" long="-3.0765" lat="54.3361" type="manual_update"  gazref="Geoname_ID_2653454" name="Coniston Water" conf="99991">Coniston lake</enamex> in all its beauty, we hastened westward to it, and did not stop till we had arrived on the hill near <enamex sw="w24590" long="-3.054689994363566" lat="54.37724386049945" type="other" gazref="unlock:11221597" name="Monk Coniston" conf="2">Monk Coniston</enamex>, at the north end of the lake.</s></p>
<p><s id="s156">The banks of this lake, the half of which we here perceive, appeared to me to have but little of the sublimity of those of the <enamex sw="w24762" long="-3.137630072408776" lat="54.59221629737263" type="rgn" gazref="unlock:11128985" name="Derwent Isle" conf="2.4">Derwent</enamex>, and equally little of the mild beauties of <enamex sw="w24814" long="-2.9344" lat="54.373" type="manual update" gazref="Geoname_ID_2633852" name="Lake Windermere" conf="99992">Winandermere</enamex>; a opinion which is however at variance with that of most of the English tourists.</s> <s id="s157">The surface of the lake has a majestic appearance, but the view of it appeared to us neither attractive from novelty nor remarkably beautiful.</s> <s id="s158">My wish to view the whole extent of the lake from some neighbouring hill, made me lose myself, and brought me close to the edge of the lake, where I found a neat public house.</s> <s id="s159">I should not in all probability have easily found the right road again, if the owner of a handsome country house in the vicinity of the lake, whom I saw in his grounds, had not very kindly conducted me back to it.</s> <s id="s160">On account of the absence and haste of my travelling compassion, I could not accept the hospitable offer of this gentleman of some refreshment, of which he no doubt perceived from my weariness, that I stood in heed.</s></p>
<p><s id="s161">By <enamex sw="w25662" long="-2.997689462703833" lat="54.37597546544907" type="ppl" gazref="unlock:30241" name="Hawkshead" conf="2.6">Hawkshead</enamex>, we arrived at <enamex sw="w25687" long="-2.977291334332336" lat="54.3599180438576" type="water" gazref="unlock:11140740" name="Esthwaite Water" conf="2.4">Esthwaite Water</enamex>, one of the lesser lakes, being only two miles long and half a mile broad: it is besides nearly divided into two parts by two peninsulas, which project into it from each side.</s> <s id="s162">On the western side of the lake a superb villa has lately been erected, called <enamex sw="w25958" long="-2.993329807482995" lat="54.38675288307329" type="other" gazref="unlock:11074917" name="Belmount" conf="2">Belmount</enamex>, but we could not learn the name of its proprietor.</s> <s id="s163">The banks of this lake are of a softer, and more lovely description than those of all the others, <enamex sw="w26117" long="-2.9344" lat="54.373" type="manual update" gazref="Geoname_ID_2633852" name="Lake Windermere" conf="99992">Winandermere</enamex> itself not expected, and are most agreeably enlivened by the most beautiful verdure, clumps and rows of trees,&amp; c.</s></p>
<p><s id="s164">After numerous windings, we at length regained <enamex sw="w26292" long="-2.9344" lat="54.373" type="manual update" gazref="Geoname_ID_2633852" name="Lake Windermere" conf="99992">Winandermere</enamex>, whose waves are seen from a distance, glittering through the trees which withdraw it from the view.</s> <s id="s165">The road passes not far from a Gothic pavilion belonging to Mr. Carwen, called the station, situated on the declivity of a rock, which runs in a picturesque manner along the western bank of the lake.</s> <s id="s166">Not far from it is the ferry-house, whence passengers usually cross over to the village of <enamex sw="w26697" long="-2.915738676011205" lat="54.36040070757029" type="ppl" gazref="unlock:11084353" name="Bowness-On-Windermere" conf="2.6">Bowness</enamex> on the other side.</s></p>
<p><s id="s167">We entered the ferry-house, and had just sent for a boat, for the purpose of returning by water to <enamex sw="w26823" long="-2.96358681023542" lat="54.4319364520582" type="ppl" gazref="unlock:11061737" name="Ambleside" conf="2.6">Ambleside</enamex>, when a violent thunder storm, accom - panied with heavy rain, which lasted for two hours, compelled us to remain in the house.</s> <s id="s168">A row of tall, majestic and umbrageous wild-cherry trees before the house, must no doubt afford an excellent shade from the sun, but they so much darkened the windows of the upper story, into which we were shown, that we were excluded from the view of the lake, and would gladly have wished them away for a few hours.</s> <s id="s169">We could not quit the ferry-house until past six, when we returned along the western bank of the lake.</s> <s id="s170">The view was however, infinitely improved by the thunder storm; the mountains surrounding the lake appeared in a blueish vapour, which mixing with their natural green, allowed only the villas on their sides to be visible.</s> <s id="s171">With such an exquisite spectacle did the heavens favour us; whilst the half of them towards the south were darkened with greyish-black thunder clouds, the azure blue of the other half was reflected in the clear bosom of the lake, and formed an harmonious whole with its immediate banks.</s> <s id="s172">The view disappeared from our sight the more our road receeded from the banks towards <enamex sw="w27976" long="-2.96358681023542" lat="54.4319364520582" type="ppl" gazref="unlock:11061737" name="Ambleside" conf="2.6">Ambleside</enamex>, which we did not reach till eight o'clock.</s> <s id="s173">Here we were stuck with the number of gates,( a great annoyance to travellers in <enamex  sw="w28111" name="Large admin unit">Germany</enamex>, and only met with in bye roads in <enamex  sw="w28154" name="Large admin unit">England</enamex>), of which we had no less than sixteen to open in this short distance.</s></p>
<p><s id="s174">Next morning we left the beautiful and agreeable <enamex sw="w28282" long="-2.96358681023542" lat="54.4319364520582" type="ppl" gazref="unlock:11061737" name="Ambleside" conf="2.6">Ambleside</enamex>, and drove along the east bank to <enamex sw="w28326" long="-2.915738676011205" lat="54.36040070757029" type="ppl" gazref="unlock:11084353" name="Bowness-On-Windermere" conf="2.6">Bowness</enamex>, where we alighted.</s> <s id="s175">The road is so much buried in the mountains, that we have no view of the lake till we approach this village, when the road rises a little.</s> <s id="s176">My wish to find some eminence in the vicinity, from which I could have a view of the greater part of the lake, was partly gratified by ascending a hill not far from the village.</s> <s id="s177">Here I could see the whole breadth of the lake, but only so much of its length as reached to its northern extremity, the other part taking a sudden bend to the west.</s></p>
<p><s id="s178">A water excursion of this lake, the first of all those in <enamex  sw="w28895" name="Large admin unit">Cumberland</enamex> and <enamex  sw="w28910" name="Large admin unit">Westmoreland</enamex>, was one of those pleasures to which we had long looked forward to with the most ardent desire, and we therefore hastened to the little boat in which we were to be rocked about on it.</s> <s id="s179">Our nearest point was Curwen island, opposite to <enamex sw="w29156" long="-2.915738676011205" lat="54.36040070757029" type="ppl" gazref="unlock:11084353" name="Bowness-On-Windermere" conf="2.6">Bowness</enamex>, so called after its owner, Mr. Curwen, who has very extensive estates on the <enamex  sw="w29242" name="Large admin unit">Lancashire side</enamex> of the lake.</s> <s id="s180">His son resides on this island, which is the largest of the ten that are scattered over the northern part of the lake, and is of an oblong form, terminating in a point at each end.</s> <s id="s181">Art has done every thing to embellish this place, to which nature had already been so bountiful.</s> <s id="s182">The wood with which it is covered has been converted into a park, intersected with serpentine walks, which have a beautifully romantic appearance from exotics of all kinds; whilst the proprietor's villa in the middle of the island, forms a resting point for the eye.</s> <s id="s183">It is built in the form of rotunda, the front of which is ornamented with a portico supported by four Ionic columns, to which there is an ascent, by broken steps on each side, that in the manner they are contrived here, do not seem to be quite in their place.</s> <s id="s184">Two singular additions of a square form, to which there is also an ascent by steps, give to the back of the rotunda a less pleasing appearance, though they are probably necessary in consequences of manner in which the house is planned.</s></p>
<p><s id="s185">After a walk through the rest of <enamex  sw="w30345" name="Too ambigious to allocate">the park</enamex>, we again embarked, for the purpose of obtaining a view of the country seat belonging to Colonel <enamex sw="w30451" long="-2.430426782171715" lat="53.57208890145878" type="ppl" gazref="unlock:11082597" name="Bolton" conf="2.104836681">Bolton</enamex>, situated on one of the points of land extending into the lake opposite to Curwen's Island.</s> <s id="s186">Before reaching it, we passed a small pier, at the end of which there is a handsome square pavilion, containing on it the names of the four naval heroes of <enamex  sw="w30706" name="Large admin unit">Great Britain</enamex>, <enamex sw="w30721" long="-116.9381904602051" lat="50.37723350524902" type="water" gazref="unlock:14138583" name="Duncan Lake" conf="0.8038638418">Duncan</enamex>, <enamex sw="w30729" long="-71.2156165" lat="42.8839763" type="other" gazref="unlock:7828106" name="Howe Hill" conf="0.7936022659">Howe</enamex>, <enamex sw="w30735" long="-2.205152755264158" lat="53.83337338914555" type="ppl" gazref="unlock:11227409" name="Nelson" conf="1.936242042">Nelson</enamex>, and <enamex sw="w30747" long="-0.6244063851075355" lat="52.90864040596995" type="other" gazref="unlock:11276972" name="St Vincent" conf="0.6829962367">St. Vincent</enamex>, in large letters.</s> <s id="s187">On turning round the pier we had a full view of this noble building, which in my opinion is one of the most elegant and beautiful villas in the whole kingdom.</s> <s id="s188">Here there is no useless show, which ought to be confined to cities, no sacrifice of the object of the structure for the sake of external grandeur, no neglect of any thing, which the character of the country requires, and yet every thing about the building at once pronounces the possessor to be a man of rank and taste.</s> <s id="s189">The house is of a light yellow colour, that harmonizes admirably with the verdure with which it is surrounded.</s> <s id="s190">The front towards the lake has a gentle semi-circular projection, which contains the door, with two windows on each side.</s> <s id="s191">The remaining part of this front is lighted by a large arched window on each side.</s> <s id="s192">In the second story the projection above mentioned supports a balcony enclosed by iron rails of very neat workmanship.</s> <s id="s193">A glass cupola, rising from the centre of the building, appears to give light to the rooms behind the projection.</s> <s id="s194">On our return from the house we met the colonel's handsome yacht proudly gliding through the water, in full sail, with the British ensign and pendant hoisted, and with the colonel himself at the helm as steersman.</s> <s id="s195">A yacht belonging to Mr. Pedder, a landholder, and neighbour to the colonel, and fitted out in a similar manner, likewise glided past us.</s></p>
<p><s id="s196">As the thunder storm of the preceeding day had prevented us from visiting the Station before mentioned, we now availed ourselves of our present excursion to repeat our visit to the western bank of the lake, and had no reason to repent the loss of time it occasioned.</s> <s id="s197">A winding path leads up to the entrance of the garden, which looks like the gate of an ancient Gothic castle.</s> <s id="s198">The garden itself seems in some measure to have been gained from the rock, for projections from it still extend into the walks, and enter the clusters of flowers which art has here planted.</s> <s id="s199">The house is two stories in height, and built entirely in the Gothic castle style, but to judge from its appearance, is nevertheless very suitable for habitation.</s> <s id="s200">The lower story contains a handsome and spacious dining room, looking towards the lake, to which the surrounding trees communicate a pleasing gloom.</s> <s id="s201">In the upper story there is a large drawing room, the walls of which are hung round with landscapes, representing mountain and water scenery, in the manner of <enamex sw="w33197" long="-49.6486111" lat="-25.8561111" type="other" gazref="unlock:5098080" name="Sítio Cid Alberti" conf="0.05661157522">Alberti</enamex>.</s> <s id="s202">The windows are filled with stained glass, through which the landscape appears of every possible colour excepting the natural.</s> <s id="s203">From the top of the hill we were enabled to view the whole northern part of the lake, with its noble environs, and an almost uninterrupted succession of country seats along its banks; among these were Mr. Pringle's and Mr. Taylor's villas opposite to us; and <enamex sw="w33592" long="-2.931737280270144" lat="54.38724387708846" type="fac" gazref="unlock:11096668" name="Calgarth Hall" conf="2.2">Calgarth</enamex>, the seat of the venerable Dr. Watson, Bishop of Landaff, lately deceased; Mr. <enamex sw="w33680" long="-1.870801805759336" lat="53.84246818136305" type="ppl" gazref="unlock:11165653" name="Harden" conf="1.380213259">Harden</enamex>'s possession; and New <enamex sw="w33709" long="-2.96358681023542" lat="54.4319364520582" type="ppl" gazref="unlock:11061737" name="Ambleside" conf="2.6">Ambleside</enamex>, the splendid villa of Mr. Harrison, the building of which is not yet finished.</s></p>
<p><s id="s204">After having with great difficulty torn ourselves from the lovely and never to be forgotten <enamex sw="w33891" long="-2.9344" lat="54.373" type="manual update" gazref="Geoname_ID_2633852" name="Lake Windermere" conf="99992">Winandermere</enamex>, we proceeded eastward in a direct line to <enamex sw="w33947" long="-2.745809060481465" lat="54.32561646560368" type="ppl" gazref="unlock:11185036" name="Kendal" conf="3.055827238">Kendal</enamex>, and were soon at a distance from the banks of the lake.</s></p>
<p><s id="s205"><enamex sw="w34011" long="-2.745809060481465" lat="54.32561646560368" type="ppl" gazref="unlock:11185036" name="Kendal" conf="3.055827238">Kendal</enamex>, a little town, of about 7000 inhabitants, on the banks of the River Ken, over which there is an old bridge to the north of the town, contains several very pretty houses.</s> <s id="s206">The tall poplars between the different houses at the south end of the town give rather a pleasing and lively appearance to it, the want of which is occasionally very much felt in the provincial town of <enamex  sw="w34391" name="Large admin unit">England</enamex>.</s> <s id="s207">From <enamex sw="w34405" long="-2.745809060481465" lat="54.32561646560368" type="ppl" gazref="unlock:11185036" name="Kendal" conf="3.055827238">Kendal</enamex> we proceeded to <enamex sw="w34428" long="-0.6855457191527591" lat="52.36085754462765" type="ppl" gazref="unlock:11094145" name="Burton Latimer" conf="1.439254529">Burton</enamex>, where we quitted <enamex  sw="w34453" name="Large admin unit">Westmoreland</enamex>, and entered <enamex  sw="w34479" name="Large admin unit">Lancashire</enamex>.</s></p>
<p><s id="s208">Chap.</s> <s id="s209">Xiii.</s>
</p>
<p> <s id="s210"><enamex sw="w34505" long="-2.801902525771824" lat="54.04660667916625" type="ppl" gazref="unlock:11190914" name="Lancaster" conf="3.134718443">Lancaster</enamex>-- <enamex sw="w34516" long="-2.890464102233929" lat="53.18298073394839" type="fac" gazref="unlock:11101187" name="Castle, The" conf="1.061946896">The Castle</enamex>-- Adrian's Tower-- Interior of the Prison-- Courts of Justice-- The Churches-- The Aqueduct-- Garstang-- <enamex sw="w34627" long="-2.700788395198065" lat="53.73570150206997" type="ppl" gazref="unlock:10830" name="Preston" conf="2.108965567">Preston</enamex>-- Gas Lights-- Mr. Horrock's Cotton Manufactory-- Tarleton-- Ormskirk-- <enamex sw="w34705" long="-2.878238320350647" lat="53.5225887298584" type="ppla" gazref="unlock:14131229" name="Liverpool" conf="2.380693463">Liverpool</enamex>-- The Docks-- Knowsley-- Prescot-- Return to <enamex sw="w34758" long="-2.878238320350647" lat="53.5225887298584" type="ppla" gazref="unlock:14131229" name="Liverpool" conf="2.380693463">Liverpool</enamex>-- The Harbour-- St. Nicholas' Church-- The Athenaeum-- The Lyceum-- Other Reading Rooms-- The Billiard Room-- The Ball Room-- The <enamex  sw="w34890" name="Too ambigious to allocate">Botanic Garden</enamex>-- The <enamex  sw="w34910" name="Too ambigious to allocate">Town Hall</enamex>-- The Exchange-- The <enamex sw="w34939" long="-76.5341315" lat="39.3637182" type="other" gazref="unlock:7111466" name="Maryland School for the Blind" conf="0.7853200487">School for the Blind</enamex>-- The Theatre-- Mr. Roscoe-- Visit to <enamex sw="w34995" long="-2.817525477668481" lat="53.28239496568156" type="ppl" gazref="unlock:11182318" name="Ince" conf="1.526180978">Ince</enamex>-- Mr. Blundell's Collection of Antiques.</s></p>
<p><s id="s211">As every inn-keeper who has obtained the necessary licence, may keep post-chaises and horses, the expense of posting in <enamex  sw="w35162" name="Large admin unit">England</enamex> varies in different parts, according to the price of fodder, or the extent of competition.</s> <s id="s212">From <enamex sw="w35266" long="-4.24521462470108" lat="55.86220524586288" type="ppl" gazref="unlock:11153386" name="Glasgow" conf="2.020638757">Glasgow</enamex> and through the whole of <enamex  sw="w35299" name="Large admin unit">Cumberland</enamex> and <enamex  sw="w35314" name="Large admin unit">Westmoreland</enamex>, we had been constantly obliged to pay one shilling and four - pence for an English mile; but at <enamex sw="w35422" long="-2.801902525771824" lat="54.04660667916625" type="ppl" gazref="unlock:11190914" name="Lancaster" conf="3.134718443">Lancaster</enamex> we were charged only the usual price of one shilling and three - pence.</s></p>
<p> <s id="s213">We could then have obtained post-chaises at <enamex sw="w35547" long="-0.08573711413610305" lat="51.48768230024373" type="civila" gazref="unlock:13326794" name="Greater London Authority" conf="2.599854406">London</enamex> for one shilling per mile.</s></p>
<p> <s id="s214"><enamex sw="w35582" long="-2.801902525771824" lat="54.04660667916625" type="ppl" gazref="unlock:11190914" name="Lancaster" conf="3.134718443">Lancaster</enamex> is a seaport town.</s></p>
<p> <s id="s215">The third son of King Edward Iii.</s></p>
<p><s id="s216">In the country between <enamex sw="w35669" long="-2.745809060481465" lat="54.32561646560368" type="ppl" gazref="unlock:11185036" name="Kendal" conf="3.055827238">Kendal</enamex> and <enamex sw="w35680" long="-2.801902525771824" lat="54.04660667916625" type="ppl" gazref="unlock:11190914" name="Lancaster" conf="3.134718443">Lancaster</enamex> there is a great sameness; but it becomes more attractive as we approach the last-mentioned place.</s> <s id="s217">An excellent and handsome stone bridge of five arches, that brings us directly to the <enamex sw="w35875" long="0.03945741209707941" lat="51.51419835981224" type="ppl" gazref="unlock:11125097" name="Custom House" conf="1.416465051">Custom House</enamex>, extends itself very picturesquely across the <enamex sw="w35934" long="-2.876940624860074" lat="53.98315982354758" type="water" gazref="unlock:11270685" name="River Lune" conf="2.349173587">River Lune</enamex>, which forms a harbour here, and along which there is a row of handsome warehouses.</s> <s id="s218">This little town has a very pleasing appearance, and is even embellished by a pretty large and open place, called <enamex sw="w36143" long="-3.171704505173775" lat="54.16043111994377" type="ppl" gazref="unlock:11126870" name="Dalton-In-Furness" conf="2.416308795">Dalton</enamex> Square, which contains several magnificent houses.</s> <s id="s219">Among the objects worth seeing here, the castle claims the first place.</s> <s id="s220">This majestic edifice, when entire must have been one of the noblest remains of Gothic architecture in <enamex  sw="w36376" name="Large admin unit">England</enamex>, but it now presents only a faint resemblance of what it was in its former glory.</s> <s id="s221">The whole seems to have been a heptagon.</s> <s id="s222">Of the seven towers which protected the corners, four only remain.</s> <s id="s223">The front, containing the great arched gate, is still completely unimpaired, and appears in all its ancient splendour.</s> <s id="s224">On entering the spacious castle yard we were immediately struck with the appearance of a huge square tower to the left, called Adrian's tower, on the top of which there is a turret, known by the appellation of John of Gaunt's Chair, where there is an immense seat, wherein that renowned hero is said to have frequently sat and viewed the surrounding country.</s> <s id="s225">We ascend by stone stairs to two large sleeping apartments in this tower.</s> <s id="s226">From their height we may conceive the great elevation of the tower itself.</s> <s id="s227">From the thronged state of prison, instead of only sixteen or seventeen persons, which these rooms were originally intended to contain, twenty - six persons now slept in them, which is calculated to render the atmosphere of the rooms very unwholesome.</s> <s id="s228">From the top of the tower we looked down into the court of the prison, and were enabled to form a distinct idea of its internal arrangement.</s> <s id="s229">Each tower has its own peculiar division of the court in front of it, enclosed by a wall, in which the prisoners may walk at stated times, without having any communication with the prisoners of the other towers.</s> <s id="s230">The ground in these divisions is flagged, that it may always be kept clean, and a well supplies the prisoners with water during their walk.</s> <s id="s231">The two towers next to Adrian's tower, contains forty cells each; and a new one, which will contain room for 120 women, was building, for the sake of which, alas, the beautiful Gothic tower beside it was to be demolished! The number of persons confined in the different receptacles was considerable, even for a country of the extent of <enamex sw="w38280" long="-2.801902525771824" lat="54.04660667916625" type="ppl" gazref="unlock:11190914" name="Lancaster" conf="3.134718443">Lancaster</enamex>; there being at this time 197 male and 53 female criminals, and 150 debtors, amounting in all to 400 persons.</s> <s id="s232">Of the former, 34 men and 11 women were sentenced to transportation, and on 17 no sentence had yet been passed.</s> <s id="s233">The allowance afforded to the prisoners, is here, as in all other English prisons, very plentiful.</s> <s id="s234">They receive daily one pound of bread and a penny-worth of butter; and ten pounds of potatoes and two pounds and a half of flour per week; and every Sunday one pound of meat.</s> <s id="s235">In the chapel, which is rather a gloomy room, the culprits have seats within gratings.</s> <s id="s236">We found the prayer-books fastened to the desks.</s> <s id="s237">The courts of justice in the castle are very magnificent.</s> <s id="s238">The civil, or nisi prius court, is as usual, of a semi-circular form, and wholly in the Gothic style.</s> <s id="s239">Cross arches run from the pillars between the windows to the centre of the room, whilst the pillars themselves are connected with each other by similar arches above the windows.</s> <s id="s240">The room is ornamented by two beautiful portraits, as large as life, of Lord Stanley and Mr. Blackburne, the members for <enamex  sw="w39381" name="Large admin unit">Lancashire</enamex>.</s> <s id="s241">The second court( or crown court) forms an oblong square, supported by five Gothic double pillars.</s> <s id="s242">A broad staircase runs down into the court, on which the public stand during the trials.</s> <s id="s243">A picture of George Iii.</s> <s id="s244">on horseback, is hung opposite to the entrance.</s> <s id="s245">The room appropriated to the deliberations of the grand jury, which is evidently an imitation of the chapter-houses of cathedrals, and the record's room, are in the same style as that of the court; the latter is circular with a hand - some cupola, and lighted from above.</s> <s id="s246">The view from the towers is very extensive; and the new bridge before-mentioned( built by Mr. Harrison, the able architect who also conducted the transformation of the castle), appears here to very great advantage.</s> <s id="s247">A walk surrounded with a stone balus trade runs round the castle, which presents several points, whence the environs of the city may be seen.</s> <s id="s248">The church, a beautiful Gothic building of an oblong form, in the style of the fifteenth century, is situated on a lower elevation, and only separated from the castle by the most.</s> <s id="s249">Its interior is carefully white-washed.</s> <s id="s250">The organ appears to be a very good one.</s> <s id="s251">The church seats, which are on each side of the altar( a very unusual position), are ornamented with curious carved work in wood, apparently of a very ancient date.</s></p>
<p> <s id="s252">See an account somewhat different in Warner's Reisen durch das wordlichs <enamex  sw="w40782" name="Large admin unit">England</enamex>, von Kuttner, vol.</s> <s id="s253">2.</s> <s id="s254">p.</s> <s id="s255">140.</s></p>
<p> <s id="s256">The building of the Bridge cost £ 12,000, and that of the prison £ 40,000.</s></p>
</text>
</document>